,state,county,status,population,latitude,longitude,ttl_staff,beds
0,California,KINGS,CLOSED,49,36.3361588500001,-119.64566729799999,0,49
1,California,VENTURA,OPEN,62,34.1549388720001,-118.815736391,0,62
2,California,LOS ANGELES,OPEN,127,34.023647302,-118.184164805,0,127
3,California,LOS ANGELES,OPEN,100,34.0963913570001,-118.325234871,0,100
4,California,LOS ANGELES,OPEN,95,34.063038932,-117.967437788,0,95
5,California,LOS ANGELES,OPEN,172,33.8597066200001,-118.148402965,0,172
6,California,LOS ANGELES,OPEN,49,34.1487586590001,-117.99266765700001,0,49
7,California,LOS ANGELES,OPEN,101,34.0494660590001,-118.138262231,0,101
8,California,LOS ANGELES,OPEN,16,33.823914464,-118.35609694700001,0,16
9,California,RIVERSIDE,OPEN,78,33.8580833070001,-117.553858035,0,78
10,California,MODOC,OPEN,87,41.4800562550001,-120.54574398700001,0,87
11,California,MONTEREY,OPEN,269,36.659030455999996,-121.645983804,0,269
12,Texas,NUECES,CLOSED,189,27.778510168,-97.39620831299999,0,189
13,California,ORANGE,OPEN,27,33.782727173000104,-117.833891865,0,27
14,California,ORANGE,OPEN,48,33.7474607400001,-117.831055631,0,48
15,California,ORANGE,OPEN,86,33.934495886,-117.893948792,0,86
16,California,ORANGE,OPEN,109,33.7635332090001,-117.99525596299999,0,109
17,California,TULARE,OPEN,63,36.320843946,-119.34823452799999,0,63
18,Georgia,CHARLTON,CLOSED,0,30.845275348,-82.005057392,0,0
19,Louisiana,IBERIA,OPEN,103,30.006906976999996,-91.79452385299999,0,103
20,Texas,HOUSTON,OPEN,25,31.32360364,-95.43889930599991,0,25
21,Louisiana,RAPIDES,OPEN,128,31.327378942000102,-92.4401351129999,0,128
22,Louisiana,UNION,OPEN,11,32.8239916700001,-92.65664868100001,0,11
23,Louisiana,UNION,OPEN,18,32.776127934,-92.4056258479999,0,18
24,Louisiana,CONCORDIA,OPEN,40,31.5611748630001,-91.4260669829999,0,40
25,Louisiana,CALDWELL,OPEN,40,32.0600399510001,-92.099137669,0,40
26,Georgia,FRANKLIN,CLOSED,144,34.2832503650001,-83.118972365,0,144
27,California,LOS ANGELES,OPEN,121,33.8070928700001,-118.19338992899999,0,121
28,California,ALAMEDA,OPEN,216,37.706406198,-122.16465451799999,0,216
29,California,LOS ANGELES,OPEN,177,33.8846318610001,-118.162267066,0,177
30,California,LOS ANGELES,OPEN,1265,33.928031349,-118.06798967200001,0,1265
31,Illinois,PERRY,OPEN,0,38.084846,-89.3491079999999,0,17
32,Georgia,CHATHAM,OPEN,0,31.985430321,-81.15455636899999,0,294
33,Georgia,FLOYD,OPEN,45,34.259713445,-85.1802396319999,0,45
34,Georgia,UPSON,OPEN,115,32.886297701,-84.33650698799991,0,115
35,Georgia,SUMTER,OPEN,76,32.0669623380001,-84.2560501999999,0,76
36,Georgia,MERIWETHER,OPEN,32,32.887980741,-84.69234490000001,0,32
37,Georgia,COWETA,OPEN,25,33.3848346460001,-84.757746692,0,50
38,,METRO,OPEN,0,18.380443000000103,-65.95579000000001,0,988
39,Wisconsin,BROWN,OPEN,16,44.522712261,-87.924827084,0,16
40,Wisconsin,MILWAUKEE,OPEN,40,43.035812152000105,-88.037265823,0,40
41,,BAYAMON,OPEN,0,18.3676556610001,-66.154391259,0,0
42,Louisiana,RAPIDES,OPEN,0,31.252191558000003,-92.481987814,0,18
43,Louisiana,LAFOURCHE,OPEN,38,29.7026714240001,-90.565253898,0,38
44,Louisiana,EAST FELICIANA,OPEN,0,30.832635688000003,-91.21066048799999,0,0
45,Louisiana,JEFFERSON,OPEN,0,29.865979474,-90.03069185,0,14
46,Wisconsin,FOND DU LAC,OPEN,18,43.834376092000106,-88.81775152899999,0,18
47,Rhode Island,PROVIDENCE,OPEN,0,41.832139084000104,-71.4331495449999,0,0
48,Wisconsin,MONROE,OPEN,0,44.00308068,-90.493319014,0,0
49,Wisconsin,LINCOLN,OPEN,25,45.175632537000105,-89.681831276,0,25
50,California,SHASTA,OPEN,16,40.586595392,-122.411974107,0,16
51,California,SANTA BARBARA,OPEN,34,34.6353716090001,-120.452188325,0,34
52,Georgia,STEWART,CLOSED,25,32.08616827,-84.660699774,0,25
53,California,SAN BERNARDINO,OPEN,176,34.0320795600001,-117.60859933,0,176
54,California,SAN BERNARDINO,OPEN,134,34.047305635,-117.251636776,0,134
55,California,SAN BERNARDINO,OPEN,342,34.134672357000106,-117.277019975,0,342
56,California,SAN DIEGO,OPEN,414,32.7915625750001,-117.095159549,0,414
57,California,SAN DIEGO,OPEN,173,32.896858901,-117.24287107,0,173
58,California,SAN DIEGO,OPEN,194,33.0373447760001,-117.284183383,0,194
59,California,SAN DIEGO,OPEN,206,32.7982957780001,-117.154977819,0,206
60,California,SAN DIEGO,OPEN,390,32.754770233,-117.165731384,0,390
61,California,SAN FRANCISCO,OPEN,299,37.786509197,-122.456030633,0,299
62,California,SAN FRANCISCO,OPEN,309,37.7907045380001,-122.431294533,0,309
63,California,SAN FRANCISCO,OPEN,403,37.77408876,-122.45375164200001,0,403
64,California,SONOMA,OPEN,173,38.471793006,-122.72706436,0,173
65,California,SOLANO,OPEN,248,38.12690208,-122.248377304,0,248
66,California,YOLO,OPEN,108,38.663925024,-121.792145249,0,108
67,California,ALAMEDA,OPEN,75,37.8201396110001,-122.26400415,0,75
68,California,ALAMEDA,OPEN,93,37.712288347,-122.143493689,0,93
69,California,ALAMEDA,OPEN,217,37.633441993000105,-122.087912534,0,217
70,California,SAN JOAQUIN,OPEN,35,37.9765963,-121.291070926,0,35
71,California,SAN JOAQUIN,OPEN,364,37.970467188,-121.288182762,0,364
72,California,LOS ANGELES,OPEN,105,34.132654576,-117.871259716,0,105
73,California,LOS ANGELES,OPEN,334,34.128165628000005,-118.256643169,0,334
74,California,LOS ANGELES,OPEN,460,34.0985736490001,-118.294175331,0,460
75,California,LOS ANGELES,OPEN,218,34.2185641940001,-118.430219294,0,218
76,California,LOS ANGELES,OPEN,249,34.170393216,-118.531904059,0,249
77,California,LOS ANGELES,OPEN,60,34.067204777,-118.286392079,0,60
78,California,LOS ANGELES,OPEN,107,33.833640007,-118.07967795100001,0,107
79,California,LAKE,OPEN,32,38.935618855,-122.62014453200001,0,32
80,California,MADERA,OPEN,356,36.8840478340001,-119.800242412,0,356
81,California,RIVERSIDE,OPEN,489,33.7633520680001,-116.406241091,0,489
82,California,SANTA CLARA,OPEN,404,37.252078736,-121.946576875,0,404
83,California,SANTA CLARA,OPEN,327,37.3354013750001,-121.998873047,0,327
84,California,SANTA CLARA,OPEN,302,37.436004575,-122.17539003600001,0,302
85,California,SAN MATEO,OPEN,149,37.488847836,-122.223390131,0,149
86,California,CONTRA COSTA,OPEN,245,37.9830895790001,-122.03349679600001,0,245
87,California,CONTRA COSTA,OPEN,145,37.9822344500001,-121.802978505,0,145
88,California,SACRAMENTO,OPEN,287,38.601797751,-121.393144026,0,287
89,California,NEVADA,OPEN,104,39.228016294,-121.04749977899999,0,104
90,California,ORANGE,OPEN,141,33.8475141810001,-118.038302332,0,141
91,California,ORANGE,CLOSED,73,33.457065243,-117.650183918,0,73
92,California,SUTTER,OPEN,46,39.143106319,-121.618012022,0,46
93,Georgia,PICKENS,OPEN,48,34.4582486800001,-84.412912891,0,52
94,Georgia,CLARKE,OPEN,165,33.9472213170001,-83.40525245899991,0,196
95,Georgia,COBB,OPEN,92,33.8564432910001,-84.51105483,0,216
96,Rhode Island,WASHINGTON,OPEN,125,41.3621890750001,-71.825303241,0,125
97,Wisconsin,DANE,OPEN,440,43.0593384640001,-89.401429215,0,440
98,Wisconsin,MILWAUKEE,OPEN,105,43.046765098,-88.007716433,0,105
99,Wisconsin,OZAUKEE,OPEN,17,43.256677929,-87.926157962,0,17
100,Wisconsin,GREEN LAKE,OPEN,25,43.9784771540001,-88.94122636,0,25
101,Arkansas,BENTON,OPEN,0,36.3089928530001,-94.18297802,0,208
102,Wisconsin,POLK,OPEN,25,45.4090324310001,-92.64257811700001,0,25
103,Wisconsin,ST. CROIX,OPEN,25,45.117760748000094,-92.55550037799999,0,25
104,Wisconsin,SHEBOYGAN,OPEN,185,43.7623479010001,-87.747537955,0,185
105,Wisconsin,VERNON,OPEN,25,43.551673973,-90.88839127799999,0,25
106,California,LOS ANGELES,OPEN,199,33.9343517980001,-118.13090396,0,199
107,California,LOS ANGELES,OPEN,115,33.839348116000096,-118.35972151899999,0,115
108,California,SAN BERNARDINO,OPEN,343,34.050130832,-117.264094455,0,343
109,Wisconsin,WINNEBAGO,OPEN,157,44.012420717000104,-88.60104549299999,0,157
110,Washington DC,DISTRICT OF COLUMBIA,OPEN,609,38.911958508000104,-77.07525457299991,0,609
111,Florida,PASCO,OPEN,120,28.3479628600001,-82.20072007999991,0,120
112,Florida,PALM BEACH,OPEN,536,26.437192841000098,-80.127787747,0,536
113,Florida,OSCEOLA,OPEN,76,28.144780763000004,-81.476687855,0,76
114,Massachusetts,BRISTOL,OPEN,103,41.9240838480001,-71.3611225619999,0,103
115,Massachusetts,NORFOLK,OPEN,66,42.3507795100001,-71.12124228100001,0,66
116,Florida,CLAY,OPEN,106,30.108762428000002,-81.832688692,0,106
117,Florida,MARION,OPEN,60,29.165875541,-82.1623349449999,0,60
118,Connecticut,TOLLAND,OPEN,0,41.7411039190001,-72.198011482,0,57
119,Florida,MARTIN,OPEN,54,27.133437293000004,-80.222455815,0,54
120,Massachusetts,SUFFOLK,OPEN,30,42.363092548000104,-71.066301879,0,30
121,Massachusetts,SUFFOLK,OPEN,132,42.3785090760001,-71.049055546,0,132
122,Massachusetts,BRISTOL,OPEN,0,41.707486913000004,-71.145714465,0,16
123,Massachusetts,ESSEX,OPEN,62,42.471620105999996,-70.956760931,0,62
124,Massachusetts,HAMPDEN,OPEN,53,42.155775937,-72.472077338,0,53
125,Kentucky,ADAIR,OPEN,77,37.0966415730001,-85.29454565,0,74
126,Iowa,DECATUR,OPEN,25,40.750934665,-93.746940772,0,25
127,Kansas,ANDERSON,OPEN,41,38.2798769950001,-95.25033865399999,0,41
128,Kansas,KEARNY,OPEN,25,37.946593269000104,-101.25192991200001,0,25
129,Kansas,OTTAWA,OPEN,42,39.1293319640001,-97.70394425099991,0,42
130,Massachusetts,NORFOLK,OPEN,58,42.2771000000001,-71.2368999999999,0,58
131,Massachusetts,BRISTOL,OPEN,90,41.740725231999996,-70.945753607,0,90
132,Massachusetts,NORFOLK,OPEN,215,42.1890000000001,-71.2021,0,215
133,Massachusetts,BARNSTABLE,OPEN,60,41.7329844970001,-70.4681028369999,0,60
134,Massachusetts,MIDDLESEX,OPEN,124,42.39,-71.10939999999991,0,124
135,Massachusetts,HAMPDEN,OPEN,40,42.121315027,-72.59237295,0,40
136,Arkansas,SEBASTIAN,OPEN,336,35.355865991,-94.352054967,0,336
137,Arkansas,SEBASTIAN,OPEN,80,35.3739403050001,-94.41875448199991,0,80
138,Arkansas,WHITE,OPEN,193,35.2340944110001,-91.731074311,0,193
139,Arkansas,WHITE,OPEN,286,35.2518860440001,-91.69700113100001,0,286
140,Arkansas,YELL,OPEN,35,35.220476139,-93.157298166,0,35
141,Arkansas,CLARK,OPEN,25,34.1229135660001,-93.088824163,0,25
142,Arkansas,CARROLL,OPEN,25,36.359062103,-93.551825772,0,25
143,Arkansas,CARROLL,OPEN,22,36.400163789000004,-93.744235921,0,22
144,Arkansas,CHICOT,OPEN,15,33.306293968,-91.289589924,0,15
145,Arkansas,BRADLEY,OPEN,35,33.6103641340001,-92.059254885,0,35
146,Arkansas,RANDOLPH,OPEN,50,36.289760273000105,-90.99738763,0,50
147,Arkansas,DALLAS,OPEN,25,33.81085539,-92.42558764399999,0,25
148,Arkansas,CRITTENDEN,CLOSED,152,35.1431102350001,-90.18909851099991,0,152
149,Arkansas,OUACHITA,OPEN,100,33.5758211300001,-92.8367393299999,0,100
150,Arkansas,BOONE,OPEN,174,36.2365313550001,-93.1091393739999,0,174
151,Arkansas,STONE,OPEN,25,35.856583126,-92.0828645349999,0,25
152,Arkansas,CLAY,OPEN,25,36.390119473,-90.20483796,0,25
153,Arkansas,CLEBURNE,OPEN,25,35.488569575999996,-92.057981141,0,25
154,Arkansas,CONWAY,OPEN,35,35.168014912,-92.72135131700001,0,35
155,Arkansas,PULASKI,OPEN,400,34.7490251460001,-92.320137314,0,400
156,Arkansas,PULASKI,OPEN,248,34.783654887000104,-92.223409163,0,248
157,Arkansas,PULASKI,OPEN,60,34.8764356660001,-92.394413249,0,60
158,Arkansas,GARLAND,OPEN,89,34.509897065000104,-93.057577489,0,89
159,Arkansas,GARLAND,CLOSED,35,34.5121250130001,-93.05260787200001,0,35
160,Arkansas,GARLAND,OPEN,289,34.46802567,-93.066270414,0,289
161,Arkansas,HOT SPRING,OPEN,72,34.358774038,-92.78588840100001,0,72
162,Arkansas,JEFFERSON,OPEN,27,34.2221914250001,-92.082686048,0,27
163,Arkansas,JEFFERSON,OPEN,471,34.1877346910001,-92.017680195,0,471
164,Arkansas,WASHINGTON,OPEN,60,36.109099384000004,-94.15484503799999,0,60
165,Georgia,CHATHAM,OPEN,530,32.030530877,-81.088862423,0,512
166,Arkansas,WASHINGTON,OPEN,114,36.1278907560001,-94.119851426,0,114
167,Arkansas,WASHINGTON,OPEN,64,36.1355102700001,-94.1862192249999,0,64
168,Wisconsin,OUTAGAMIE,OPEN,332,44.2482512390001,-88.402509675,0,332
169,Arkansas,POLK,OPEN,65,34.589053600999996,-94.22163124299999,0,65
170,Arkansas,LOGAN,OPEN,25,35.140321922000105,-93.93517063199991,0,25
171,Arkansas,LOGAN,OPEN,16,35.289293339000004,-93.724878549,0,16
172,Arkansas,CROSS,OPEN,25,35.219557916999996,-90.78664053599991,0,25
173,Arkansas,PULASKI,OPEN,120,34.74429608,-92.381816086,0,120
174,Wisconsin,MILWAUKEE,OPEN,31,43.0614554430001,-87.88038437899999,0,31
175,Arizona,PIMA,OPEN,49,31.806571113000103,-111.01001850799999,0,49
176,Arkansas,ARKANSAS,OPEN,0,34.5175108030001,-91.55829954200001,0,49
177,Kentucky,CASEY,OPEN,15,37.3177168120001,-84.933171913,0,24
178,Kentucky,ESTILL,OPEN,25,37.7061970980001,-83.977277144,0,25
179,Kentucky,FLOYD,OPEN,174,37.729010056,-82.767320076,0,174
180,Kentucky,JEFFERSON,OPEN,373,38.235330086,-85.6329369279999,0,373
181,Kentucky,JEFFERSON,OPEN,298,38.178264384,-85.793916414,0,298
182,Kentucky,JEFFERSON,OPEN,88,38.235696632,-85.62734094699991,0,88
183,Kentucky,OLDHAM,OPEN,90,38.394890194,-85.37606515399992,0,90
184,Massachusetts,WORCESTER,OPEN,114,42.2764120840001,-71.794919787,0,114
185,Massachusetts,MIDDLESEX,OPEN,147,42.5047000000001,-71.2744,0,147
186,Massachusetts,ESSEX,OPEN,12,42.8484143950001,-70.933380246,0,12
187,Massachusetts,SUFFOLK,OPEN,405,42.3379,-71.1092,0,405
188,Massachusetts,SUFFOLK,OPEN,136,42.3158184070001,-71.11227314,0,136
189,Massachusetts,ESSEX,OPEN,79,42.6255,-70.6806,0,79
190,Massachusetts,WORCESTER,OPEN,47,42.201899283,-71.89882734299991,0,47
191,Massachusetts,WORCESTER,OPEN,166,42.279667187,-71.769066943,0,166
192,Maine,AROOSTOOK,OPEN,25,46.1338462430001,-67.843623468,0,25
193,Maine,KENNEBEC,OPEN,46,44.541826482,-69.661491065,0,48
194,Maine,KENNEBEC,CLOSED,146,44.3131197610001,-69.7684343719999,0,146
195,Maine,KENNEBEC,CLOSED,75,44.549192727,-69.65867356300001,0,75
196,Maine,LINCOLN,CLOSED,52,43.850343927,-69.63876930399991,0,52
197,Michigan,GLADWIN,OPEN,25,43.975943671,-84.493887563,0,25
198,Michigan,LUCE,OPEN,25,46.3531800920001,-85.515653738,0,25
199,Michigan,ALGER,OPEN,11,46.42527107000011,-86.625185297,0,11
200,Massachusetts,NORFOLK,OPEN,0,42.298318572,-71.1492856839999,0,90
201,Michigan,LIVINGSTON,OPEN,136,42.6155875640001,-83.940990396,0,136
202,Michigan,HILLSDALE,OPEN,65,41.9117386880001,-84.633003534,0,65
203,Michigan,OAKLAND,OPEN,36,42.517887537,-83.120107267,0,36
204,Michigan,BERRIEN,OPEN,38,42.1848804640001,-86.24992582700001,0,38
205,Michigan,ISABELLA,OPEN,118,43.5991224840001,-84.76141286099991,0,118
206,Michigan,MASON,OPEN,49,43.95814794100001,-86.430409384,0,49
207,Michigan,VAN BUREN,OPEN,35,42.221294361,-85.89707006100001,0,35
208,Michigan,SANILAC,OPEN,15,43.528119210000106,-82.734249152,0,15
209,Michigan,WAYNE,OPEN,877,42.3676867830001,-83.08472312,0,877
210,Minnesota,FREEBORN,OPEN,159,43.652360697000105,-93.372752304,0,159
211,Minnesota,GOODHUE,OPEN,15,44.486164638999995,-92.90320230100001,0,15
212,Minnesota,MARTIN,OPEN,57,43.6388014610001,-94.45043699899999,0,57
213,Minnesota,BROWN,OPEN,24,44.2466191440001,-94.971083614,0,24
214,Missouri,BOONE,OPEN,126,38.9366672620001,-92.3290578519999,0,126
215,North Dakota,MORTON,OPEN,41,46.841869301,-100.90769771299999,0,41
216,North Dakota,GRANT,OPEN,30,46.407325814,-101.841463455,0,30
217,Indiana,MADISON,OPEN,137,40.130645588,-85.693209184,0,137
218,Indiana,ST. JOSEPH,OPEN,416,41.684055285999996,-86.25157885,0,416
219,Nevada,CLARK,OPEN,70,36.205530766,-115.250356365,0,70
220,Nevada,CLARK,OPEN,346,36.113959578,-115.124505177,0,293
221,Pennsylvania,PHILADELPHIA,OPEN,58,40.018812978,-75.099464048,0,58
222,Pennsylvania,PHILADELPHIA,OPEN,957,39.9497083750001,-75.157946045,0,957
223,Pennsylvania,PHILADELPHIA,OPEN,305,39.9588724830001,-75.199263683,0,305
224,Pennsylvania,PHILADELPHIA,CLOSED,227,39.9714860890001,-75.16319015499991,0,227
225,Pennsylvania,PHILADELPHIA,OPEN,280,39.94788477,-75.20007508899991,0,280
226,Pennsylvania,MONTOUR,OPEN,404,40.968144964000004,-76.6052561079999,0,404
227,Georgia,CHEROKEE,OPEN,0,34.2292380000001,-84.466259,0,158
228,Georgia,COOK,OPEN,0,31.108198934,-83.427372852,0,60
229,Montana,HILL,OPEN,49,48.538077306000005,-109.685817755,0,49
230,South Carolina,CHARLESTON,OPEN,713,32.785882041,-79.947921358,0,713
231,Georgia,DEKALB,OPEN,0,33.924247302,-84.33106507,0,50
232,Virginia,PAGE,OPEN,25,38.6632500000001,-78.468518,0,25
233,Ohio,PORTAGE,OPEN,302,41.1760577540001,-81.24901729899992,0,302
234,Texas,TRAVIS,OPEN,248,30.303110830999998,-97.707022459,0,248
235,Texas,TARRANT,OPEN,430,32.737071728000004,-97.341405043,0,430
236,Washington,LEWIS,OPEN,25,46.55567481,-122.280354393,0,25
237,Indiana,HAMILTON,OPEN,0,39.980419948000105,-86.1534726249999,0,20
238,Wisconsin,WAUKESHA,OPEN,175,43.0593758960001,-88.1545194289999,0,175
239,Wisconsin,MILWAUKEE,OPEN,52,42.86001258,-87.954068104,0,52
240,Wisconsin,MILWAUKEE,OPEN,538,43.074120253000004,-87.97607340399999,0,538
241,Wisconsin,MARATHON,OPEN,99,44.890182311000004,-89.580145988,0,99
242,Wisconsin,MILWAUKEE,OPEN,260,42.985657749,-87.93465729199991,0,260
243,Wisconsin,ONEIDA,OPEN,73,45.639470413000005,-89.374826589,0,73
244,Ohio,MONTGOMERY,OPEN,883,39.744893204,-84.185908608,0,883
245,Wisconsin,PORTAGE,OPEN,94,44.526431841000004,-89.5670962149999,0,94
246,Wisconsin,WOOD,OPEN,99,44.38175803000011,-89.829889438,0,99
247,Wisconsin,MARATHON,OPEN,325,44.9658418510001,-89.66789021299999,0,325
248,Wisconsin,WALWORTH,OPEN,109,42.66189502700011,-88.496191993,0,109
249,Wisconsin,WASHINGTON,OPEN,71,43.3184058430001,-88.36246156200001,0,71
250,Wisconsin,KENOSHA,OPEN,74,42.5693968150001,-87.93546502299989,0,74
251,Wisconsin,MANITOWOC,OPEN,69,44.125367829,-87.61945613299999,0,69
252,Indiana,SHELBY,OPEN,0,39.5603560000001,-85.78581700000001,0,40
253,Texas,LUBBOCK,OPEN,73,33.573403254,-101.900592032,0,73
254,Indiana,WABASH,OPEN,0,40.8209370000001,-85.823901,0,18
255,Indiana,LAKE,OPEN,0,41.448803072,-87.337260123,0,70
256,Indiana,PERRY,OPEN,0,37.9679310000001,-86.731667,0,25
257,Ohio,TRUMBULL,OPEN,219,41.2309117450001,-80.777155281,0,219
258,Ohio,TRUMBULL,OPEN,346,41.235855923,-80.798778258,0,346
259,Oregon,HOOD RIVER,OPEN,25,45.7048319680001,-121.52390863,0,25
260,Illinois,KANKAKEE,OPEN,325,41.125086857,-87.8818988909999,0,325
261,Oregon,GRANT,OPEN,25,44.417112715,-118.95969148100001,0,25
262,New York,DUTCHESS,OPEN,365,41.6938589390001,-73.93578611399991,0,365
263,New York,ERIE,OPEN,550,42.9250771000001,-78.8311457679999,0,550
264,New York,MONROE,OPEN,830,43.122808873000096,-77.624259428,0,830
265,New York,NASSAU,OPEN,764,40.7776359200001,-73.701610944,0,764
266,Ohio,SUMMIT,CLOSED,139,41.1321462700001,-81.47737547,0,139
267,New York,NASSAU,OPEN,530,40.726255513000105,-73.553738015,0,530
268,New York,NASSAU,OPEN,455,40.6509979950001,-73.630839438,0,455
269,New York,ONONDAGA,OPEN,409,43.0418973170001,-76.139830463,0,409
270,New York,ORANGE,OPEN,242,41.5034248490001,-74.014565578,0,242
271,New Hampshire,ROCKINGHAM,OPEN,86,42.8767711740001,-71.3166615379999,0,86
272,New York,ORANGE,OPEN,353,41.441914083,-74.368312265,0,353
273,New York,RENSSELAER,OPEN,212,42.733292485,-73.67216399599991,0,212
274,New York,ST. LAWRENCE,OPEN,94,44.6765106230001,-74.982116316,0,94
275,Washington,SAN JUAN,OPEN,25,48.526778965000105,-123.029601125,0,25
276,New York,ROCKLAND,OPEN,375,41.096211471000096,-73.926018132,0,375
277,New York,SARATOGA,OPEN,171,43.085880218999996,-73.796782733,0,171
278,Illinois,LAKE,OPEN,0,42.1911067670001,-87.808414946,0,0
279,Illinois,LAKE,OPEN,279,42.274235002000104,-87.957699742,0,279
280,Illinois,LAKE,OPEN,169,42.1953823710001,-88.1728188709999,0,169
281,Illinois,KNOX,OPEN,119,40.95579903,-90.365760264,0,119
282,Illinois,KNOX,OPEN,90,40.986710283,-90.360244917,0,90
283,Illinois,LAKE,OPEN,73,42.4492578300001,-87.8278328439999,0,73
284,Maryland,BALTIMORE CITY,OPEN,70,39.299280975,-76.59281871099991,0,70
285,Maryland,BALTIMORE CITY,OPEN,281,39.2929215520001,-76.612884233,0,281
286,Maryland,BALTIMORE CITY,OPEN,467,39.352302514,-76.662090147,0,467
287,Maryland,BALTIMORE CITY,OPEN,800,39.287908572,-76.624925928,0,800
288,New York,STEUBEN,OPEN,15,42.313873273000105,-77.6606131039999,0,15
289,Maryland,BALTIMORE CITY,OPEN,477,39.2906788110001,-76.5467781899999,0,477
290,New Hampshire,SULLIVAN,OPEN,25,43.38458975,-72.340696706,0,25
291,New Hampshire,ROCKINGHAM,OPEN,111,42.8716633350001,-71.15420707899992,0,111
292,New Hampshire,STRAFFORD,OPEN,112,43.29755659600001,-70.96016086,0,112
293,New Hampshire,HILLSBOROUGH,OPEN,62,42.9718711,-71.87453591100001,0,62
294,New Hampshire,HILLSBOROUGH,OPEN,188,42.7562798370001,-71.46137469899999,0,188
295,New Hampshire,HILLSBOROUGH,OPEN,208,42.749239109,-71.4802120539999,0,208
296,New Hampshire,HILLSBOROUGH,OPEN,296,42.983954,-71.438,0,296
297,New Hampshire,MERRIMACK,OPEN,295,43.197744144000104,-71.5620204049999,0,295
298,New Hampshire,MERRIMACK,OPEN,25,43.44840425899999,-71.644552725,0,25
299,New York,SUFFOLK,OPEN,125,40.885059735,-72.379944064,0,125
300,New York,SUFFOLK,OPEN,90,41.1103605700001,-72.3611273189999,0,90
301,New York,SUFFOLK,OPEN,408,40.8793292410001,-73.416199532,0,408
302,New York,SUFFOLK,OPEN,321,40.725960148000105,-73.2411586379999,0,321
303,Kentucky,FAYETTE,OPEN,433,38.032339732,-84.52329929,0,433
304,Kentucky,FAYETTE,OPEN,50,38.0227066090001,-84.472698523,0,50
305,New York,SUFFOLK,OPEN,437,40.693880129,-73.294394616,0,437
306,New York,ULSTER,OPEN,150,41.926658407,-73.994842067,0,150
307,New York,ULSTER,OPEN,25,41.732629792000104,-74.379034975,0,25
308,New York,WAYNE,OPEN,120,43.060499378,-77.10166991199999,0,120
309,New York,WESTCHESTER,OPEN,12,41.014392248,-73.861919649,0,12
310,New York,WESTCHESTER,OPEN,238,41.1090070550001,-73.86308776399991,0,238
311,Kentucky,GRAYSON,OPEN,75,37.4725153040001,-86.288593089,0,75
312,Kentucky,GREENUP,OPEN,190,38.5084543190001,-82.692616508,0,190
313,New York,WESTCHESTER,OPEN,86,41.074847541000096,-73.79997223699999,0,86
314,Illinois,MORGAN,OPEN,108,39.7460849930001,-90.26048663599991,0,108
315,Maryland,WASHINGTON,OPEN,65,39.676995295,-77.61059940000001,0,65
316,Kentucky,GARRARD,CLOSED,15,37.6220260640001,-84.585157253,0,15
317,New York,WESTCHESTER,OPEN,652,41.0860907520001,-73.8049547749999,0,652
318,New York,BRONX,OPEN,779,40.880079256,-73.87982669899999,0,779
319,Kentucky,FRANKLIN,OPEN,173,38.160661745,-84.906893698,0,173
320,New York,BRONX,OPEN,213,40.8803656010001,-73.881057106,0,213
321,Maryland,WASHINGTON,OPEN,247,39.622192811,-77.682562947,0,247
322,New York,KINGS,OPEN,530,40.655269102,-73.9125565319999,0,530
323,New York,KINGS,OPEN,464,40.6905725080001,-73.9778837649999,0,464
324,New York,BRONX,CLOSED,0,40.8407431110001,-73.848517531,0,0
325,New York,KINGS,OPEN,639,40.656616381,-73.94469079,0,639
326,New York,KINGS,OPEN,371,40.5854143810001,-73.9653324339999,0,371
327,New York,KINGS,OPEN,396,40.646563994000104,-74.020914692,0,396
328,New York,BRONX,OPEN,457,40.8562983570001,-73.847512147,0,457
329,New York,KINGS,OPEN,591,40.667761701000096,-73.978990521,0,591
330,New York,NEW YORK,OPEN,225,40.734431687,-73.982999962,0,225
331,New York,NEW YORK,OPEN,190,40.8397632590001,-73.941282577,0,190
332,New York,NEW YORK,CLOSED,0,40.76941213,-73.986808395,0,0
333,New York,QUEENS,OPEN,551,40.744827363000105,-73.886079665,0,551
334,New York,QUEENS,OPEN,408,40.700103647,-73.816114892,0,408
335,Illinois,VERMILION,OPEN,99,40.4586898920001,-87.65973327099991,0,99
336,Illinois,VERMILION,OPEN,127,40.137832453,-87.6454332439999,0,127
337,Kentucky,WARREN,OPEN,337,36.9959715050001,-86.42975938,0,337
338,New York,QUEENS,OPEN,519,40.7467722760001,-73.8254163829999,0,519
339,Kansas,SEDGWICK,OPEN,0,37.5827716790001,-97.2469857139999,0,31
340,New York,NASSAU,OPEN,247,40.871001397,-73.622385666,0,247
341,Kentucky,LINCOLN,OPEN,25,37.54279432,-84.653036559,0,25
342,Kentucky,LIVINGSTON,OPEN,25,37.263053189000104,-88.228502459,0,25
343,New York,WESTCHESTER,OPEN,223,40.912806059,-73.78776260099991,0,23
344,New York,KINGS,OPEN,212,40.618820103000104,-73.94290124,0,212
345,New York,WESTCHESTER,OPEN,270,41.0275795110001,-73.7539098829999,0,270
346,New York,NEW YORK,OPEN,282,40.81426493,-73.939861261,0,282
347,New York,NEW YORK,OPEN,201,40.80328511,-73.94162385399991,0,201
348,New York,BRONX,OPEN,461,40.852689006,-73.891362876,0,461
349,New York,STEUBEN,OPEN,35,42.3743292,-77.278906628,0,35
350,New York,MONTGOMERY,OPEN,10,42.959065173999996,-74.187122925,0,10
351,New York,RENSSELAER,OPEN,15,42.733357751,-73.672666077,0,15
352,Illinois,GRUNDY,OPEN,89,41.36932590200011,-88.42675330600001,0,89
353,Illinois,WINNEBAGO,OPEN,325,42.265674876999995,-89.0741395379999,0,325
354,Illinois,WINNEBAGO,OPEN,297,42.298427168,-89.098441351,0,297
355,New York,CLINTON,OPEN,300,44.7004430440001,-73.469419865,0,300
356,New York,BRONX,OPEN,325,40.893697171,-73.861191189,0,325
357,Maryland,MONTGOMERY,OPEN,409,39.0147221440001,-77.035735227,0,409
358,Illinois,WILL,OPEN,289,41.54468733,-87.98343597,0,289
359,Illinois,WILL,OPEN,148,41.6808649600001,-88.0846514409999,0,148
360,Maryland,PRINCE GEORGE'S,OPEN,37,38.728563368,-76.99270168899992,0,37
361,New York,NEW YORK,OPEN,495,40.804922543,-73.961590352,0,495
362,New York,NEW YORK,OPEN,1007,40.841052882,-73.940686522,0,1007
363,New York,NEW YORK,OPEN,862,40.7645499400001,-73.954332262,0,862
364,New York,KINGS,CLOSED,0,40.6898734210001,-73.997765714,0,0
365,New York,MONROE,OPEN,0,43.221611782,-77.944575109,0,0
366,New York,ERIE,OPEN,200,42.9092085090001,-78.87520901499991,0,200
367,New York,NASSAU,OPEN,591,40.7406974780001,-73.64300839899991,0,591
368,New York,CHAUTAUQUA,OPEN,40,42.0911672400001,-79.245365836,0,40
369,New York,WESTCHESTER,OPEN,141,40.9403860690001,-73.8916523939999,0,141
370,New York,ONTARIO,OPEN,0,42.9012374390001,-77.26963606399991,0,0
371,New York,WESTCHESTER,OPEN,178,41.2663913170001,-73.62071751399999,0,178
372,New York,SARATOGA,OPEN,88,43.058130469,-73.78539606,0,88
373,Kentucky,HENDERSON,OPEN,192,37.854974612,-87.58319901600001,0,192
374,Illinois,JEFFERSON,OPEN,41,38.3116451610001,-88.93688084,0,41
375,Illinois,KANE,OPEN,210,41.7290071840001,-88.270615983,0,210
376,Illinois,KANE,OPEN,159,41.886614965,-88.34345036299999,0,159
377,Illinois,KANE,OPEN,293,41.7858095500001,-88.325769044,0,293
378,Kentucky,WOODFORD,OPEN,25,38.0547656890001,-84.7237883399999,0,25
379,New York,BRONX,OPEN,0,40.867348658000004,-73.90638208600001,0,311
380,Texas,MCCULLOCH,OPEN,25,31.117688498000103,-99.346853612,0,25
381,Texas,JACKSON,OPEN,25,28.969104749000103,-96.63588688,0,25
382,Texas,SCHLEICHER,OPEN,14,30.863001943,-100.60299406,0,14
383,Kentucky,TAYLOR,OPEN,90,37.3663517620001,-85.338106556,0,90
384,Texas,COCHRAN,OPEN,18,33.7197375100001,-102.757522271,0,18
385,Maryland,ALLEGANY,OPEN,371,39.647830672000104,-78.733241499,0,371
386,Maryland,ANNE ARUNDEL,OPEN,380,38.98992672,-76.53461243299991,0,380
387,Illinois,PIATT,OPEN,16,40.06044805,-88.558821704,0,16
388,Illinois,PEORIA,OPEN,631,40.702746817,-89.591965425,0,631
389,Illinois,PIKE,OPEN,21,39.6074434780001,-90.81513269700001,0,21
390,Oklahoma,OKMULGEE,OPEN,26,35.6675323540001,-95.960331813,0,26
391,Illinois,ADAMS,OPEN,335,39.936358882,-91.39945720200001,0,335
392,Oklahoma,OKLAHOMA,OPEN,81,35.474896238,-97.52494158199991,0,50
393,Illinois,PEORIA,OPEN,269,40.7003057960001,-89.59491683600001,0,269
394,Illinois,COOK,OPEN,182,41.895454536,-87.618334799,0,182
395,Illinois,COOK,OPEN,224,41.864893065,-87.82828250700001,0,224
396,Illinois,COOK,OPEN,234,42.056416062,-87.74070961099991,0,234
397,Illinois,COOK,OPEN,114,41.878618014000004,-87.803351533,0,114
398,Illinois,COOK,OPEN,187,41.797060552000104,-87.88639492600001,0,187
399,Illinois,COOK,OPEN,255,41.910529781,-87.842815074,0,255
400,Texas,WOOD,OPEN,25,32.9445383180001,-95.307279633,0,25
401,Texas,LAVACA,OPEN,25,29.30695852,-97.129159089,0,25
402,Illinois,COOK,OPEN,176,41.8721245730001,-87.76408865,0,176
403,Illinois,COOK,OPEN,577,41.788746851,-87.604337126,0,577
404,Texas,HUTCHINSON,OPEN,25,35.655138191,-101.409180667,0,25
405,Illinois,COOK,OPEN,134,41.9551890160001,-87.6516212399999,0,134
406,Illinois,COOK,OPEN,460,41.872334867000106,-87.674398458,0,460
407,Illinois,COOK,OPEN,421,41.8468895830001,-87.62149159799999,0,421
408,Illinois,COOK,OPEN,288,41.721464999,-87.69302887799999,0,288
409,Illinois,COOK,OPEN,330,41.9367408480001,-87.65137166299999,0,330
410,Illinois,COOK,OPEN,189,41.973086773,-87.67074305700001,0,189
411,Illinois,COOK,OPEN,684,41.7216945170001,-87.732442245,0,684
412,Illinois,COOK,OPEN,624,42.038802226,-87.84733438399999,0,624
413,Illinois,COOK,OPEN,386,42.068291106000096,-87.99218163399999,0,386
414,Illinois,COOK,OPEN,370,42.004656823000104,-88.0168922779999,0,370
415,Illinois,COOK,OPEN,885,41.894607713,-87.621024366,0,885
416,Illinois,COOK,OPEN,305,42.052928459,-88.1410342249999,0,305
417,Illinois,COOK,OPEN,25,41.802675013000105,-87.61332387200001,0,25
418,Kentucky,RUSSELL,OPEN,25,37.05758045,-85.067352806,0,25
419,West Virginia,RALEIGH,OPEN,300,37.787554395,-81.201931585,0,300
420,Kentucky,ROCKCASTLE,OPEN,26,37.3579643200001,-84.3359033199999,0,26
421,Maryland,CECIL,OPEN,122,39.608514525,-75.831967046,0,122
422,Kentucky,JEFFERSON,OPEN,519,38.238118248,-85.637144295,0,519
423,Kentucky,JEFFERSON,OPEN,462,38.249131647000105,-85.75118949899999,0,462
424,Kentucky,JEFFERSON,OPEN,337,38.242656516000096,-85.731237729,0,337
425,Kentucky,JEFFERSON,OPEN,396,38.2188090000001,-85.71059213,0,396
426,Kentucky,JEFFERSON,OPEN,404,38.248322961,-85.7443359649999,0,404
427,Kentucky,JOHNSON,OPEN,72,37.8155109360001,-82.813051295,0,72
428,West Virginia,JEFFERSON,OPEN,25,39.2959891360001,-77.858759055,0,25
429,West Virginia,FAYETTE,OPEN,25,37.971276577,-81.149780587,0,25
430,West Virginia,CALHOUN,OPEN,42,38.9227600680001,-81.0924929559999,0,42
431,West Virginia,CABELL,OPEN,393,38.430550451,-82.4004127269999,0,393
432,West Virginia,MERCER,OPEN,267,37.3627189270001,-81.113010848,0,267
433,West Virginia,MASON,OPEN,201,38.8690654100001,-82.123223867,0,201
434,West Virginia,BOONE,OPEN,25,38.0482000000001,-81.80619,0,25
435,West Virginia,POCAHONTAS,OPEN,25,38.200829117000104,-80.108978397,0,25
436,West Virginia,PRESTON,CLOSED,25,39.46507784,-79.687857503,0,25
437,West Virginia,LEWIS,OPEN,150,39.0411492700001,-80.496304267,0,150
438,Kansas,WYANDOTTE,OPEN,0,39.055827304,-94.6089825,0,936
439,West Virginia,UPSHUR,OPEN,51,38.9914120460001,-80.23638929899991,0,51
440,West Virginia,BERKELEY,OPEN,241,39.476243465,-77.9802371769999,0,195
441,West Virginia,MONONGALIA,OPEN,645,39.6544225740001,-79.958022141,0,677
442,West Virginia,MARSHALL,OPEN,127,39.946141927,-80.752437545,0,90
443,Illinois,EFFINGHAM,OPEN,146,39.125776017000106,-88.5501252189999,0,146
444,Kentucky,MASON,OPEN,100,38.6399743760001,-83.808105166,0,100
445,Kentucky,BOONE,OPEN,161,39.0165918180001,-84.630767205,0,231
446,Kentucky,BELL,OPEN,120,36.76291694,-83.707768726,0,120
447,Illinois,ROCK ISLAND,OPEN,101,41.4943257400001,-90.418416114,0,101
448,Illinois,ROCK ISLAND,OPEN,343,41.482615267,-90.57041812899999,0,343
449,Illinois,SANGAMON,OPEN,473,39.80936884,-89.65577910199991,0,473
450,Kentucky,BOYLE,OPEN,222,37.6438733050001,-84.773001139,0,197
451,Illinois,CHAMPAIGN,OPEN,322,40.117041763,-88.2149486599999,0,322
452,Wisconsin,WASHBURN,CLOSED,25,45.825597325,-91.896346513,0,25
453,Kentucky,MARION,OPEN,75,37.5698288780001,-85.2614564089999,0,75
454,Kentucky,MUHLENBERG,OPEN,90,37.1965353910001,-87.189294499,0,90
455,New York,ONONDAGA,OPEN,105,43.045193753999996,-76.14054445100001,0,154
456,Kentucky,CALDWELL,OPEN,25,37.113674313000004,-87.90960047600001,0,25
457,Kentucky,BARREN,OPEN,180,37.011392389,-85.9045139739999,0,180
458,Oklahoma,PONTOTOC,OPEN,60,34.784595667000104,-96.62745078200001,0,60
459,Oklahoma,MAJOR,OPEN,25,36.2759877820001,-98.474523405,0,25
460,Oklahoma,LATIMER,OPEN,33,34.91947628,-95.32085573099991,0,33
461,Illinois,MASON,OPEN,20,40.305423138,-90.0540906959999,0,20
462,Kentucky,CHRISTIAN,OPEN,495,36.864669215999996,-87.45126671700001,0,495
463,Kentucky,PIKE,OPEN,261,37.471241666,-82.522247497,0,340
464,Oklahoma,OKLAHOMA,OPEN,314,35.4816532400001,-97.49610501299999,0,314
465,South Dakota,HAAKON,OPEN,18,44.039808763000096,-101.67147677700001,0,18
466,Oklahoma,PITTSBURG,OPEN,170,34.936881744000104,-95.750925292,0,149
467,Oklahoma,OKLAHOMA,OPEN,25,35.6145013180001,-97.58329999599991,0,25
468,Illinois,MCLEAN,OPEN,0,40.4826765880001,-88.955562196,0,149
469,Kentucky,PERRY,OPEN,358,37.2782979460001,-83.227882237,0,358
470,Kentucky,PIKE,OPEN,113,37.6765106440001,-82.297022722,0,113
471,Illinois,MACON,OPEN,188,39.8672533980001,-88.960982947,0,188
472,Illinois,MCHENRY,OPEN,173,42.31779814,-88.27946800299999,0,173
473,Illinois,MCLEAN,OPEN,200,40.496970979000004,-88.99085000199992,0,200
474,New Hampshire,CARROLL,OPEN,25,44.061812687,-71.13685380300001,0,25
475,New Hampshire,CHESHIRE,OPEN,169,42.9488432030001,-72.2919009,0,169
476,New Hampshire,GRAFTON,OPEN,25,44.317933877,-71.825559036,0,25
477,New Hampshire,GRAFTON,OPEN,25,43.63844773100001,-72.286002567,0,25
478,Oklahoma,DELAWARE,OPEN,58,36.581287354000004,-94.758576687,0,58
479,New Hampshire,BELKNAP,OPEN,137,43.5285555460001,-71.46318101299991,0,137
480,Maryland,DORCHESTER,OPEN,283,38.5494536260001,-76.0579912319999,0,283
481,Oklahoma,GARFIELD,OPEN,183,36.3901652910001,-97.887425579,0,183
482,Oklahoma,JACKSON,OPEN,49,34.635239745,-99.31803877,0,49
483,Oklahoma,HASKELL,OPEN,25,35.2611650690001,-95.128751584,0,25
484,Illinois,DUPAGE,OPEN,277,41.80591716,-87.9212213179999,0,277
485,Illinois,DUPAGE,OPEN,315,41.863761991,-87.935579144,0,315
486,Illinois,DUPAGE,OPEN,344,41.8735205630001,-88.155758695,0,344
487,Illinois,DUPAGE,OPEN,141,41.9148248980001,-88.056976526,0,141
488,Oklahoma,WOODWARD,OPEN,87,36.4373979120001,-99.400337222,0,87
489,Kentucky,KENTON,OPEN,0,39.038841,-84.594436,0,197
490,Oklahoma,COMANCHE,OPEN,199,34.592635247,-98.4627401929999,0,199
491,Oklahoma,COMANCHE,OPEN,30,34.6031011850001,-98.43861927799999,0,30
492,Oklahoma,CREEK,OPEN,15,35.998106787,-96.60596660799999,0,15
493,Oklahoma,PAYNE,OPEN,117,36.115011098000004,-97.07510206599991,0,117
494,Oklahoma,CHOCTAW,OPEN,34,34.0123720990001,-95.49665009299999,0,34
495,Oklahoma,CLEVELAND,CLOSED,50,35.2323598950001,-97.460152335,0,50
496,Oklahoma,SEMINOLE,OPEN,32,35.244974991,-96.698409235,0,32
497,Oklahoma,TULSA,OPEN,180,36.035315504,-95.86355985799999,0,180
498,Oklahoma,TULSA,OPEN,620,36.147161182,-95.968510827,0,620
499,Oklahoma,CARTER,OPEN,190,34.1889675840001,-97.1408427539999,0,190
500,Oklahoma,CARTER,OPEN,22,34.2228684200001,-97.4914664789999,0,22
501,Wisconsin,WINNEBAGO,OPEN,84,44.027746777000104,-88.59521836799999,0,84
502,Wisconsin,OZAUKEE,OPEN,127,43.3236520900001,-87.92817153600001,0,127
503,Oklahoma,TULSA,OPEN,90,36.0659550130001,-95.918593071,0,90
504,Oklahoma,ROGERS,OPEN,81,36.3226445400001,-95.60467518,0,81
505,Oklahoma,BECKHAM,OPEN,62,35.413983063,-99.42625102299999,0,62
506,Oklahoma,WAGONER,OPEN,100,35.961523955000104,-95.39243050299999,0,100
507,Wisconsin,MARINETTE,OPEN,99,45.071968680000104,-87.617696527,0,55
508,Oklahoma,OKMULGEE,OPEN,66,35.6111880240001,-95.95248499600001,0,66
509,Wisconsin,WAUKESHA,OPEN,117,43.0659120560001,-88.46757865299999,0,117
510,Wisconsin,SHEBOYGAN,OPEN,185,43.7733868460001,-87.70999507200001,0,185
511,Oklahoma,TULSA,OPEN,96,36.033582251,-95.857320101,0,96
512,Oklahoma,STEPHENS,OPEN,138,34.5203175290001,-97.975948004,0,110
513,Oklahoma,PONTOTOC,OPEN,156,34.7782702540001,-96.63336757699992,0,144
514,Oklahoma,TILLMAN,CLOSED,37,34.403774453000004,-99.013654803,0,37
515,Tennessee,MCMINN,OPEN,72,35.3450986180001,-84.52271935600001,0,72
516,New Hampshire,COOS,OPEN,25,44.486950902,-71.155253902,0,25
517,New Hampshire,COOS,OPEN,25,44.486230365,-71.554339929,0,25
518,Illinois,MONTGOMERY,OPEN,25,39.1812135550001,-89.63905574799999,0,25
519,Illinois,WARREN,OPEN,23,40.922252932,-90.658301335,0,23
520,Illinois,WHITESIDE,OPEN,36,41.80893488,-89.95787808200001,0,36
521,Illinois,SCHUYLER,OPEN,46,40.118162797,-90.5643155,0,46
522,Illinois,LOGAN,OPEN,25,40.1537865020001,-89.389893553,0,25
523,Illinois,MASSAC,OPEN,25,37.166374757,-88.740048665,0,25
524,Illinois,EDGAR,OPEN,25,39.606840038,-87.67765470200001,0,25
525,Alaska,KENAI PENINSULA,OPEN,108,60.493169052,-151.077826958,0,108
526,Georgia,DEKALB,OPEN,0,33.801860999999995,-84.311425,0,466
527,Georgia,CLARKE,OPEN,359,33.961292465999996,-83.397945072,0,359
528,West Virginia,RALEIGH,OPEN,173,37.798832695,-81.168183745,0,173
529,Kentucky,DAVIESS,OPEN,447,37.766669,-87.10083399999999,0,0
530,Alaska,FAIRBANKS NORTH STAR,OPEN,217,64.831744708,-147.739392817,0,217
531,Alaska,MATANUSKA-SUSITNA,OPEN,74,61.562893577000104,-149.258311157,0,74
532,Alaska,VALDEZ-CORDOVA,OPEN,21,61.1365337820001,-146.346551668,0,21
533,Alaska,NORTHWEST ARCTIC,OPEN,17,66.8960016240001,-162.586826252,0,17
534,Alaska,SITKA,OPEN,27,57.05156556399999,-135.354876741,0,27
535,Tennessee,JACKSON,CLOSED,0,36.3488070600001,-85.656244273,0,0
536,Tennessee,MAURY,OPEN,255,35.6071638650001,-87.0668911079999,0,255
537,Tennessee,MADISON,OPEN,152,35.6844471110001,-88.854048475,0,152
538,Montana,CASCADE,OPEN,19,47.489354518,-111.29135260700001,0,19
539,Wyoming,UINTA,OPEN,183,41.2638287170001,-110.94709822700001,0,183
540,Tennessee,HENRY,OPEN,142,36.2965426920001,-88.310304585,0,142
541,Kentucky,MERCER,OPEN,25,37.7570638770001,-84.84873911300001,0,25
542,Tennessee,ANDERSON,OPEN,301,36.024545109,-84.245085527,0,301
543,Tennessee,BLEDSOE,OPEN,25,35.620685972,-85.190868827,0,25
544,Tennessee,MCMINN,OPEN,190,35.440814994,-84.607352873,0,190
545,Tennessee,DAVIDSON,OPEN,213,36.2453409300001,-86.7496189839999,0,213
546,Tennessee,HAMILTON,OPEN,49,35.047578142000106,-85.307706217,0,49
547,Tennessee,HAMILTON,OPEN,560,35.0488941250001,-85.29004744799991,0,560
548,Tennessee,ROBERTSON,OPEN,109,36.478480081,-86.886901925,0,109
549,Tennessee,CAMPBELL,OPEN,54,36.573701364,-84.12854359399999,0,54
550,Tennessee,WASHINGTON,OPEN,514,36.307843099,-82.384562638,0,585
551,Tennessee,WILLIAMSON,OPEN,185,35.9161622550001,-86.819250043,0,185
552,Louisiana,RAPIDES,OPEN,0,31.3013320000001,-92.4873019999999,0,28
553,Tennessee,RHEA,OPEN,25,35.529101344000004,-84.981779456,0,25
554,Tennessee,RUTHERFORD,OPEN,286,35.860579123,-86.42503137599991,0,286
555,Tennessee,KNOX,OPEN,243,35.992383583,-83.9268177559999,0,243
556,Tennessee,SULLIVAN,OPEN,348,36.585516446,-82.256923265,0,348
557,Tennessee,HANCOCK,OPEN,10,36.533332982,-83.215108141,0,10
558,Tennessee,SULLIVAN,OPEN,505,36.554103173,-82.554607246,0,505
559,Kansas,COFFEY,OPEN,78,38.202271765,-95.73769964199991,0,78
560,New York,RICHMOND,OPEN,206,40.5165692800001,-74.1964660899999,0,206
561,,PONCE,OPEN,103,18.0396748470001,-66.5474067279999,0,103
562,Louisiana,JEFFERSON,OPEN,0,29.961542198000103,-90.154221499,0,56
563,Kansas,COWLEY,OPEN,37,37.132996817,-97.0385032889999,0,37
564,Kansas,WILSON,OPEN,15,37.409570585,-95.70833215200001,0,15
565,Kansas,BARTON,OPEN,33,38.356165688000004,-98.790712688,0,33
566,Kansas,POTTAWATOMIE,OPEN,159,39.4959886030001,-96.17142806700001,0,159
567,Louisiana,CALCASIEU,OPEN,0,30.190378373,-93.25037016,0,10
568,,AGUADILLA,OPEN,154,18.442809336,-67.15088510999989,0,154
569,,MAYAGUEZ,OPEN,157,18.1867640090001,-67.119196771,0,157
570,,SAN GERMAN,OPEN,167,18.0988091140001,-67.038164761,0,167
571,,OROCOVIS,OPEN,0,18.226650998,-66.394345136,0,0
572,,CAYEY,OPEN,208,18.124046301000103,-66.14748152199999,0,208
573,,SAN JUAN,OPEN,195,18.4559932870001,-66.065469531,0,195
574,,MANATI,OPEN,0,18.434554347000102,-66.4824950999999,0,251
575,,SAN JUAN,OPEN,0,18.3955074040001,-66.0728407889999,0,68
576,Texas,BRAZORIA,OPEN,64,29.183855399000002,-95.40543328699991,0,64
577,Texas,TRAVIS,OPEN,350,30.2898922050001,-97.7260463699999,0,350
578,Texas,TARRANT,OPEN,342,32.692325309000104,-97.11271637999991,0,342
579,Texas,TARRANT,OPEN,36,32.880966482000105,-97.533098647,0,36
580,Texas,HARRIS,OPEN,205,29.769116265999997,-94.97971660600001,0,205
581,Texas,HARRIS,OPEN,64,29.723805424000002,-95.4612190399999,0,64
582,Texas,CHAMBERS,OPEN,14,29.752557401999997,-94.687446673,0,14
583,Texas,TRAVIS,OPEN,378,30.4114880280001,-97.70622740499991,0,378
584,Illinois,MARION,OPEN,113,38.530281431999995,-89.117206305,0,113
585,,SAN JUAN,OPEN,0,18.3963367280001,-66.07253397699999,0,143
586,,SAN JUAN,OPEN,60,18.372592345999998,-66.046225433,0,60
587,Florida,UNION,OPEN,0,30.0670519110001,-82.193850377,0,59
588,Florida,ORANGE,OPEN,0,28.5243398650001,-81.379153603,0,285
589,Florida,ESCAMBIA,OPEN,0,30.516340123000102,-87.21686302200001,0,58
590,Florida,HILLSBOROUGH,OPEN,0,27.980230884,-82.492208722,0,0
591,Texas,EASTLAND,OPEN,52,32.3998206380001,-98.8211424789999,0,52
592,Texas,EL PASO,OPEN,182,31.7903706280001,-106.264505532,0,182
593,Texas,FREESTONE,OPEN,37,31.725343744,-96.1705982349999,0,37
594,Texas,WILSON,OPEN,44,29.158500631,-98.17497258600001,0,44
595,Texas,TARRANT,OPEN,34,32.736857639,-97.34897946299999,0,34
596,Texas,COLLIN,OPEN,68,33.104490211999995,-96.837825316,0,68
597,Texas,COOKE,OPEN,60,33.6463626400001,-97.1627319,0,60
598,Texas,GILLESPIE,OPEN,86,30.2625189980001,-98.881843268,0,86
599,Texas,HUNT,OPEN,192,33.122314078,-96.12397074299999,0,192
600,Texas,GONZALES,OPEN,34,29.5175921050001,-97.429343177,0,34
601,Texas,YOUNG,OPEN,42,33.0895821120001,-98.583967424,0,42
602,Texas,LAVACA,OPEN,25,29.4574026650001,-96.938212833,0,25
603,Texas,MEDINA,OPEN,25,29.334622957000104,-99.134482544,0,25
604,Texas,HARRIS,OPEN,864,29.7077311640001,-95.40044497199992,0,864
605,Texas,HARRIS,OPEN,255,29.995512040999998,-95.2761288889999,0,255
606,Texas,JASPER,OPEN,59,30.9078945300001,-94.009553306,0,59
607,Texas,KIMBLE,OPEN,15,30.498473076,-99.78056091199991,0,15
608,Texas,HARRIS,OPEN,208,29.787310995,-95.786254532,0,208
609,Texas,KERR,OPEN,124,30.043465994,-99.152868896,0,124
610,Texas,HAYS,OPEN,112,30.0084099860001,-97.852977451,0,112
611,Texas,HOCKLEY,OPEN,48,33.572686515,-102.368897211,0,48
612,Texas,LLANO,OPEN,30,30.742649623000002,-98.677655751,0,30
613,Texas,GREGG,OPEN,425,32.500749856,-94.7298539939999,0,425
614,Texas,COLLIN,OPEN,23,33.176525285,-96.722295801,0,23
615,Texas,HIDALGO,OPEN,297,26.196348204000103,-98.31431722399999,0,297
616,Texas,TITUS,OPEN,164,33.175599387,-94.971174939,0,164
617,Texas,HARRIS,OPEN,178,29.549248517,-95.08676363299999,0,178
618,Texas,NACOGDOCHES,OPEN,153,31.653144314000002,-94.653873115,0,153
619,Illinois,MADISON,OPEN,0,38.890804962000104,-90.170929284,0,0
620,Texas,ECTOR,OPEN,14,31.85173303,-102.359572789,0,14
621,Texas,ANDERSON,OPEN,86,31.732596683000104,-95.627227561,0,86
622,Texas,LAMAR,OPEN,214,33.6596691980001,-95.547228929,0,214
623,Texas,CASS,CLOSED,25,33.0139875080001,-94.3638835789999,0,25
624,Texas,GRAY,OPEN,115,35.5724721620001,-100.96479646799999,0,115
625,Texas,HARRIS,OPEN,350,29.661060268000004,-95.183814699,0,350
626,Texas,HARRIS,OPEN,37,29.65912193,-95.177956514,0,37
627,Texas,HARRIS,OPEN,61,29.6410979360001,-95.162214403,0,61
628,Texas,HALE,OPEN,68,34.206756715,-101.73294565,0,68
629,Texas,REEVES,OPEN,25,31.40118876,-103.51402975799999,0,25
630,Texas,COLLIN,OPEN,366,33.043663552000105,-96.83647094700001,0,366
631,Texas,FRIO,OPEN,22,28.8963046480001,-99.117257195,0,22
632,Texas,DALLAS,OPEN,209,32.974316527,-96.72660111499991,0,209
633,Texas,FORT BEND,OPEN,168,29.576328842000102,-95.77093702199991,0,168
634,Texas,WILLIAMSON,OPEN,101,30.563395843000002,-97.684782286,0,101
635,Texas,ROCKWALL,OPEN,112,32.918019332,-96.508719073,0,112
636,Illinois,DEKALB,OPEN,24,41.657190128,-88.6207348189999,0,24
637,Texas,BEXAR,OPEN,327,29.3535371450001,-98.54470771699991,0,327
638,Texas,BEXAR,OPEN,20,29.5302401050001,-98.58975131700001,0,20
639,Texas,BEXAR,OPEN,140,29.615862213000103,-98.474434773,0,140
640,Texas,BEXAR,OPEN,120,29.489863989000103,-98.547572582,0,120
641,Kentucky,HOPKINS,OPEN,390,37.340597841,-87.49334944600001,0,390
642,Maryland,MONTGOMERY,OPEN,256,39.097844136999996,-77.197904227,0,256
643,Texas,GRAYSON,OPEN,202,33.6370973860001,-96.623821654,0,202
644,Texas,FORT BEND,OPEN,7,29.598117061,-95.624348485,0,7
645,Texas,MONTGOMERY,OPEN,351,30.1743354450001,-95.45434199600001,0,351
646,Texas,HARRIS,OPEN,358,30.087304078000003,-95.62369558200001,0,358
647,Texas,TRINITY,OPEN,45,30.9568636700001,-95.381049229,0,45
648,Texas,UVALDE,OPEN,25,29.2141196690001,-99.76783720700001,0,25
649,Texas,MCLENNAN,OPEN,237,31.5142506550001,-97.19949096799999,0,237
650,Texas,HARRIS,OPEN,21,29.533849272000104,-95.12619307700001,0,21
651,Texas,WHEELER,OPEN,16,35.4393396090001,-100.270359689,0,16
652,Texas,RUNNELS,OPEN,25,31.949221514,-99.95913544,0,25
653,Texas,DALLAS,OPEN,24,32.8042463780001,-96.7949549529999,0,24
654,Texas,COLLIN,OPEN,143,33.2209716130001,-96.68260101999991,0,143
655,Texas,HARRIS,OPEN,193,29.787156622000104,-95.69782807799999,0,193
656,New Mexico,SANTA FE,OPEN,200,35.659440986,-105.945780485,0,200
657,Texas,HARRIS,OPEN,1128,29.7105231410001,-95.39893888200001,0,1128
658,Texas,HARRIS,OPEN,313,29.9664687710001,-95.551144526,0,313
659,Texas,DALLAS,OPEN,155,32.915260532,-96.8697958659999,0,155
660,Texas,KAUFMAN,CLOSED,0,32.710613574,-96.279153043,0,0
661,Texas,WILLIAMSON,OPEN,8,30.523313901999998,-97.819846307,0,8
662,Texas,TRAVIS,OPEN,106,30.3329410310001,-97.971529905,0,106
663,Texas,MCLENNAN,OPEN,0,31.489183064000002,-97.1575429929999,0,236
664,Texas,TARRANT,OPEN,74,32.930680607000106,-97.309912276,0,74
665,Texas,WILLIAMSON,OPEN,111,30.6260947490001,-97.68871247700001,0,111
666,Texas,BEXAR,OPEN,282,29.5125494050001,-98.574910873,0,282
667,Texas,HARRIS,OPEN,221,29.811933276999998,-95.311881703,0,221
668,Texas,HARRIS,OPEN,131,29.772366973,-95.193346659,0,131
669,Texas,BEXAR,OPEN,8,29.3518245540001,-98.5330211689999,0,8
670,Texas,BRAZORIA,OPEN,64,29.563500446,-95.38867972,0,64
671,Texas,BURNET,OPEN,46,30.5128112470001,-98.30453796099991,0,46
672,Texas,COLLIN,OPEN,5,32.9991962760001,-96.75579418299999,0,5
673,New York,NEW YORK,OPEN,514,40.7642743170001,-73.956595517,0,514
674,Texas,HOWARD,OPEN,150,32.236377845,-101.49167553,0,150
675,Texas,COLLIN,OPEN,7,33.0014018520001,-96.77180155699992,0,7
676,Texas,COMAL,OPEN,8,29.5942753090001,-98.290084819,0,8
677,Texas,COMAL,OPEN,128,29.722005823000103,-98.06999717199992,0,128
678,Texas,DALLAS,OPEN,18,32.88843795,-96.7665543049999,0,16
679,Ohio,TRUMBULL,OPEN,69,41.250753537,-80.73246210100001,0,69
680,Ohio,MAHONING,OPEN,31,41.1139341860001,-80.658406384,0,31
681,Ohio,VAN WERT,OPEN,86,40.8774005160001,-84.478966946,0,86
682,Texas,ELLIS,OPEN,104,32.4275189150001,-96.85791007799999,0,104
683,Texas,FORT BEND,OPEN,6,29.589903162,-95.63643614700001,0,6
684,Texas,HARRIS,OPEN,170,29.544771245,-95.12586398699992,0,170
685,Texas,NUECES,OPEN,33,27.6860413630001,-97.37554712299999,0,33
686,Texas,HARRIS,OPEN,50,30.000539102000104,-95.562744832,0,50
687,Texas,HARRIS,OPEN,49,29.711039079000003,-95.359806416,0,49
688,Oregon,JEFFERSON,OPEN,0,44.637873733,-121.120725417,0,0
689,Texas,JACK,OPEN,17,33.230667686000096,-98.166938649,0,17
690,Texas,NUECES,OPEN,89,27.854917331,-97.635423165,0,89
691,Texas,REAGAN,OPEN,7,31.204012538,-101.461017552,0,7
692,Texas,TARRANT,OPEN,55,32.9002925200001,-97.31392871700001,0,55
693,Virginia,WASHINGTON,OPEN,116,36.722913394,-81.912121461,0,116
694,Idaho,ADA,OPEN,0,43.6155876500001,-116.191576461,0,0
695,Idaho,BLAINE,OPEN,25,43.64832025,-114.35002103,0,25
696,Indiana,HAMILTON,OPEN,6,39.968032054,-86.15870701899999,0,6
697,Indiana,MARION,OPEN,337,39.777882758000004,-86.183985886,0,337
698,Texas,HOOD,OPEN,83,32.4324893140001,-97.803848504,0,83
699,Texas,LIMESTONE,OPEN,20,31.532711191,-96.53121111199991,0,20
700,Virginia,PORTSMOUTH,OPEN,0,36.845413926999996,-76.305767911,0,202
701,Texas,LAMB,OPEN,75,33.9117068690001,-102.344294913,0,75
702,Minnesota,HENNEPIN,OPEN,0,44.9723735160001,-93.231940521,0,0
703,Illinois,WILL,CLOSED,0,41.652820588000104,-88.21737981,0,0
704,Texas,ROCKWALL,OPEN,50,32.8842894950001,-96.466225505,0,50
705,Missouri,JACKSON,OPEN,157,39.0640641040001,-94.526414395,0,157
706,Oklahoma,COMANCHE,OPEN,26,34.627598317,-98.38424195499991,0,26
707,Nebraska,DOUGLAS,OPEN,0,41.2425312890001,-95.974376496,0,0
708,Texas,DENTON,CLOSED,40,33.153661527000104,-97.05667447199991,0,40
709,Texas,HARRIS,OPEN,84,29.924409622,-95.588246125,0,84
710,Texas,HARRIS,OPEN,65,29.7232392330001,-95.3870226939999,0,65
711,Texas,HARRIS,OPEN,42,29.998675471000098,-95.2762226569999,0,42
712,Texas,CALDWELL,OPEN,34,29.674085915,-97.65508440199991,0,34
713,Texas,LAMAR,OPEN,25,33.687847639,-95.548233491,0,25
714,Texas,BEXAR,OPEN,59,29.522485792000104,-98.55637881,0,59
715,Texas,FORT BEND,OPEN,105,29.600232484000102,-95.638261176,0,105
716,Texas,FORT BEND,OPEN,68,29.6468475090001,-95.588277013,0,68
717,Texas,VICTORIA,OPEN,26,28.85499709,-97.021961071,0,26
718,Texas,BELL,OPEN,50,31.1182849250001,-97.3992927149999,0,50
719,Texas,HOWARD,OPEN,0,32.2310386070001,-101.47276951200001,0,0
720,Texas,MIDLAND,CLOSED,48,31.981713667000104,-102.15437099,0,48
721,Wisconsin,MILWAUKEE,OPEN,386,43.042490135,-87.927810903,0,386
722,Texas,CAMERON,OPEN,0,26.171042152,-97.66727696,0,0
723,Texas,BEXAR,OPEN,208,29.4256719860001,-98.4894159999999,0,208
724,Hawaii,HONOLULU,OPEN,21,21.676563792,-157.95429669799998,0,21
725,Texas,HARRIS,OPEN,116,30.044497622000105,-95.2299841399999,0,116
726,Texas,LUBBOCK,OPEN,30,33.572941638,-101.807502759,0,30
727,Texas,TRAVIS,OPEN,80,30.2115959710001,-97.792375791,0,80
728,Texas,DALLAS,OPEN,116,32.642424299,-96.874760081,0,116
729,Texas,MIDLAND,OPEN,64,31.9228750400001,-102.22216480700001,0,64
730,Texas,CAMERON,OPEN,94,26.163574216,-97.67216229299999,0,94
731,Texas,HIDALGO,OPEN,87,26.25310267,-98.20115591,0,87
732,Texas,POTTER,OPEN,106,35.20065636,-101.918535481,0,106
733,Texas,SMITH,OPEN,75,32.311197813,-95.24876729799999,0,75
734,Texas,WILLIAMSON,OPEN,118,30.6149017650001,-97.6806318279999,0,118
735,Hawaii,HAWAII,OPEN,33,20.0223088970001,-155.664420885,0,33
736,Texas,BRAZOS,OPEN,49,30.6599329850001,-96.350714502,0,49
737,Texas,DALLAS,OPEN,60,32.90107033,-96.77052204200001,0,60
738,Texas,TARRANT,OPEN,60,32.7473839990001,-97.33957339700001,0,60
739,Texas,TARRANT,OPEN,62,32.6620118020001,-97.41279007600001,0,62
740,Texas,HARRIS,OPEN,90,29.9937352160001,-95.277329298,0,90
741,Texas,SMITH,OPEN,74,32.3148766420001,-95.277770102,0,74
742,Texas,HARRIS,OPEN,60,29.547590105999998,-95.11754743899999,0,60
743,Texas,WICHITA,OPEN,63,33.8738758700001,-98.48467593,0,63
744,Texas,DENTON,OPEN,41,33.035364085,-97.0772619209999,0,41
745,Texas,DALLAS,CLOSED,0,32.826016806999995,-96.869863908,0,0
746,Texas,VICTORIA,OPEN,26,28.855783595,-97.02265217199991,0,26
747,Texas,EL PASO,OPEN,40,31.789053227000103,-106.508826044,0,40
748,Texas,GRAYSON,OPEN,21,33.770217679,-96.551281074,0,21
749,Texas,HAYS,OPEN,40,30.00839095,-97.85628014299999,0,40
750,Texas,WEBB,OPEN,12,27.5563704190001,-99.49195931700001,0,12
751,Texas,POTTER,OPEN,20,35.2104222130001,-101.912779538,0,20
752,Texas,TRAVIS,OPEN,8,30.350513861,-97.7517162189999,0,8
753,Texas,TARRANT,OPEN,34,32.679809412000104,-97.11791223799999,0,34
754,Texas,TARRANT,OPEN,24,32.6828977770001,-97.11697676700001,0,24
755,Texas,HARRIS,OPEN,631,29.707031355,-95.397077171,0,631
756,Texas,LUBBOCK,OPEN,74,33.6032101070001,-101.915568819,0,74
757,Texas,BEXAR,OPEN,30,29.613253425,-98.47736714699991,0,30
758,Texas,DALLAS,OPEN,64,32.788170651,-96.781194111,0,64
759,Texas,BEXAR,OPEN,25,29.5907386740001,-98.590356874,0,25
760,Texas,HIDALGO,OPEN,60,26.1836801590001,-98.218220533,0,0
761,Texas,BEXAR,OPEN,383,29.51422403,-98.575599241,0,383
762,Texas,HARRIS,OPEN,14,29.771962102,-94.98134415700001,0,14
763,Texas,POTTER,OPEN,21,35.20661691,-101.918690146,0,21
764,Alabama,SHELBY,OPEN,252,33.252364867,-86.8130430149999,0,252
765,Alabama,HOUSTON,OPEN,420,31.216303648000103,-85.36363112399991,0,420
766,Alabama,BARBOUR,OPEN,74,31.8886450800001,-85.156405419,0,74
767,Alabama,CLARKE,OPEN,50,31.694302296,-87.77602462700001,0,50
768,Alabama,ESCAMBIA,OPEN,51,31.017023865000102,-87.47879851299999,0,51
769,Alabama,MARION,OPEN,49,34.1259771800001,-87.99076877700001,0,49
770,Alabama,MORGAN,OPEN,230,34.5903440910001,-86.971481526,0,230
771,Alabama,ETOWAH,OPEN,346,34.0077362820001,-85.965982141,0,346
772,Hawaii,HONOLULU,OPEN,16,21.30047125,-157.835143531,0,16
773,Iowa,PAGE,CLOSED,35,40.757823230999996,-95.035580545,0,35
774,Iowa,POTTAWATTAMIE,OPEN,278,41.2687867320001,-95.838794319,0,278
775,Idaho,BINGHAM,OPEN,8,43.196302089,-112.354169572,0,8
776,Idaho,BONNEVILLE,OPEN,43,43.474366015,-111.98792070299999,0,43
777,Idaho,BANNOCK,OPEN,205,42.8738530050001,-112.42076203200001,0,205
778,Illinois,MERCER,OPEN,22,41.205523198,-90.759473441,0,22
779,Illinois,COOK,OPEN,180,41.6581141940001,-87.677830286,0,180
780,Illinois,COOK,OPEN,493,41.9025326080001,-87.68327658700001,0,493
781,Illinois,COOK,OPEN,188,41.726504393,-87.56722618100001,0,188
782,Illinois,COOK,OPEN,113,42.0434376480001,-87.8790341449999,0,113
783,Illinois,COOK,OPEN,118,42.055597107,-87.890037611,0,118
784,Illinois,MCHENRY,OPEN,35,42.426236913000004,-88.60704005,0,35
785,California,SAN BERNARDINO,OPEN,179,34.131899548,-116.275139237,0,179
786,California,SAN DIEGO,OPEN,192,32.852345105,-116.97411422299999,0,192
787,California,SAN LUIS OBISPO,OPEN,1275,35.4627176130001,-120.634890612,0,1275
788,California,SONOMA,OPEN,43,38.627095508000004,-122.864401979,0,43
789,California,LOS ANGELES,OPEN,157,34.5828776330001,-118.144366873,0,157
790,California,LOS ANGELES,OPEN,101,34.097509323000104,-117.834635766,0,101
791,California,LOS ANGELES,OPEN,273,34.100868785,-118.105918785,0,273
792,California,RIVERSIDE,OPEN,84,33.7195022650001,-117.168033041,0,84
793,California,RIVERSIDE,OPEN,77,33.9190012010001,-117.45985609899999,0,77
794,California,PLACER,OPEN,16,38.730399782000106,-121.286174766,0,16
795,California,FRESNO,OPEN,57,36.8601259070001,-119.788571731,0,57
796,California,FRESNO,OPEN,62,36.839974514000104,-119.76055349299999,0,62
797,California,HUMBOLDT,OPEN,17,40.1016781590001,-123.792254629,0,17
798,California,MONO,OPEN,17,37.643950209,-118.96232892100001,0,17
799,California,ORANGE,OPEN,114,33.788614943,-117.826413156,0,114
800,California,ORANGE,OPEN,293,33.714934772,-117.93596951,0,293
801,California,STANISLAUS,OPEN,23,37.664801074,-120.95849992299999,0,23
802,California,TULARE,OPEN,1226,36.039771218000105,-118.983418775,0,1226
803,Georgia,GWINNETT,OPEN,247,33.877568549,-84.021073872,0,281
804,Georgia,CANDLER,OPEN,25,32.4071325250001,-82.065524209,0,25
805,Georgia,FULTON,CLOSED,30,33.7693198790001,-84.38555361999991,0,30
806,Georgia,PUTNAM,OPEN,25,33.3358661950001,-83.370945622,0,25
807,Georgia,COLQUITT,OPEN,99,31.125630098000002,-83.7803788539999,0,99
808,Georgia,EVANS,OPEN,49,32.1658831440001,-81.899024445,0,49
809,Louisiana,JEFFERSON,OPEN,0,29.996756247000103,-90.18663376200001,0,119
810,Georgia,MILLER,OPEN,25,31.175482309000103,-84.73501831600001,0,25
811,Georgia,ROCKDALE,OPEN,146,33.680723828000104,-84.001575245,0,138
812,Georgia,MERIWETHER,OPEN,104,32.889631898000104,-84.68374246399999,0,25
813,Georgia,JEFFERSON,OPEN,37,33.009867494,-82.40554579100001,0,37
814,Georgia,JEFF DAVIS,OPEN,25,31.8572098610001,-82.607146961,0,35
815,Georgia,UNION,OPEN,45,34.8861000000001,-83.9623,0,45
816,Georgia,JENKINS,OPEN,25,32.804239508,-81.9345370899999,0,25
817,Indiana,MARION,OPEN,1244,39.789801115,-86.163100641,0,1244
818,Louisiana,ORLEANS,OPEN,327,29.954800113,-90.0769039149999,0,327
819,Louisiana,ASCENSION,OPEN,10,30.2035020440001,-90.951952014,0,10
820,Louisiana,ST. MARY,OPEN,22,29.800748013000003,-91.52382805399999,0,22
821,Louisiana,TERREBONNE,OPEN,10,29.599562298000002,-90.748370778,0,10
822,Louisiana,VERMILION,OPEN,35,30.0080871660001,-92.297067684,0,35
823,Louisiana,ST. JAMES,OPEN,20,30.051870889,-90.703984476,0,20
824,Louisiana,MOREHOUSE,OPEN,60,32.7809985170001,-91.94289058,0,60
825,Louisiana,EAST FELICIANA,OPEN,10,30.8354991190001,-91.158526702,0,10
826,Louisiana,EAST CARROLL,OPEN,11,32.810569679000004,-91.17235443700001,0,11
827,Louisiana,BOSSIER,OPEN,196,32.5560083890001,-93.716863672,0,196
828,Louisiana,LA SALLE,OPEN,35,31.860658622000102,-92.27558967200001,0,35
829,Louisiana,AVOYELLES,OPEN,35,31.1435451950001,-92.06294601,0,35
830,Louisiana,ST. TAMMANY,OPEN,58,30.4474054200001,-90.07312564599991,0,58
831,Louisiana,TANGIPAHOA,OPEN,17,30.732545776000098,-90.513066314,0,17
832,Louisiana,EAST BATON ROUGE,OPEN,110,30.442553947000103,-90.999652184,0,110
833,Louisiana,CALCASIEU,OPEN,38,30.1406177580001,-93.247062746,0,38
834,Wisconsin,WAUKESHA,OPEN,28,43.026065220000106,-88.232807816,0,28
835,California,BUTTE,OPEN,16,39.7545639690001,-121.84764876700001,0,16
836,California,SAN BERNARDINO,OPEN,25,34.8330659210001,-114.61749396399999,0,25
837,California,SAN DIEGO,OPEN,226,32.7765863870001,-117.057064596,0,226
838,California,SAN DIEGO,OPEN,66,32.7746316660001,-117.04416179299999,0,66
839,California,SAN DIEGO,OPEN,70,32.756383661,-117.144645403,0,70
840,California,SAN DIEGO,OPEN,227,32.6853405530001,-117.082336705,0,227
841,California,SAN FRANCISCO,OPEN,780,37.774364078000104,-122.42587335200001,0,780
842,Louisiana,DE SOTO,OPEN,0,32.035404129,-93.708147061,0,34
843,Louisiana,ST. LANDRY,OPEN,0,30.4961559450001,-92.37533383,0,18
844,California,SAN FRANCISCO,OPEN,67,37.763472349000004,-122.456850621,0,67
845,California,SAN FRANCISCO,OPEN,580,37.7630768510001,-122.45787717799999,0,580
846,California,SAN FRANCISCO,OPEN,140,37.7849197100001,-122.439147211,0,140
847,California,LOS ANGELES,OPEN,117,33.912693115,-118.09882162,0,117
848,California,LOS ANGELES,OPEN,81,33.989489571,-118.224189855,0,81
849,California,LOS ANGELES,OPEN,355,34.325871721999995,-118.44576410200001,0,355
850,California,LOS ANGELES,OPEN,17,34.0573663500001,-118.36245857700001,0,17
851,California,LOS ANGELES,OPEN,204,34.0572922740001,-118.360527347,0,204
852,California,LOS ANGELES,OPEN,138,34.064880016000096,-118.23922776100001,0,138
853,California,LOS ANGELES,OPEN,225,34.202859415,-118.62862367,0,225
854,California,SAN BENITO,OPEN,119,36.8342012480001,-121.386193641,0,119
855,California,RIVERSIDE,OPEN,160,33.873037698000104,-117.568320926,0,160
856,California,SHASTA,OPEN,10,40.5859216490001,-122.41683089600001,0,10
857,California,MARIN,OPEN,60,37.958706218,-122.552495864,0,60
858,California,MODOC,OPEN,26,41.5314890670001,-120.171428084,0,26
859,California,FRESNO,OPEN,27,36.8249140890001,-119.78216158,0,27
860,California,TRINITY,OPEN,51,40.738083507000105,-122.939656929,0,51
861,California,ORANGE,CLOSED,101,33.815846992,-118.007181145,0,101
862,California,ORANGE,OPEN,167,33.7749859690001,-117.913092884,0,167
863,California,ORANGE,OPEN,219,33.8253852140001,-117.99507363200001,0,219
864,California,STANISLAUS,OPEN,35,37.75761627200011,-120.860996573,0,35
865,California,TULARE,OPEN,61,36.3226068330001,-119.34793469,0,61
866,Georgia,FULTON,CLOSED,294,33.8425244310001,-84.427087362,0,294
867,Georgia,DOUGLAS,OPEN,90,33.677688952,-84.73391954399992,0,90
868,North Carolina,WASHINGTON,OPEN,49,35.8627820830001,-76.729283681,0,49
869,Louisiana,VERNON,OPEN,10,31.135635347000104,-93.26882274799999,0,10
870,Louisiana,TANGIPAHOA,OPEN,14,30.937128638,-90.51924696799989,0,14
871,Louisiana,CALCASIEU,OPEN,19,30.452520835,-93.436424441,0,19
872,California,SAN DIEGO,OPEN,80,32.7768583530001,-117.057681266,0,80
873,California,SAN FRANCISCO,OPEN,223,37.768684281999995,-122.43453025299999,0,223
874,California,SAN FRANCISCO,OPEN,228,37.747717858,-122.420767899,0,228
875,California,LOS ANGELES,OPEN,176,34.059102925,-118.41186805,0,138
876,California,STANISLAUS,OPEN,67,37.6658240080001,-120.92223192799999,0,67
877,California,LOS ANGELES,OPEN,59,34.176900695,-118.44749083399999,0,59
878,California,FRESNO,OPEN,1500,36.1335482900001,-120.240445956,0,1500
879,California,SHASTA,OPEN,121,41.023889361,-121.424054412,0,121
880,California,LOS ANGELES,OPEN,265,34.027708681,-118.486892397,0,265
881,California,SHASTA,CLOSED,15,40.550135106,-122.38048822299999,0,15
882,California,SANTA CRUZ,OPEN,16,36.9833689210001,-121.993947054,0,16
883,California,VENTURA,OPEN,49,34.366446695,-119.064914805,0,49
884,Georgia,MUSCOGEE,OPEN,100,32.5345247990001,-84.951212572,0,100
885,Georgia,BIBB,OPEN,0,32.847705239,-83.6152774729999,0,34
886,Georgia,TOWNS,OPEN,25,34.946576458,-83.753915298,0,25
887,Georgia,CHATHAM,OPEN,320,32.0281666670001,-81.1001092509999,0,320
888,Georgia,MURRAY,OPEN,42,34.780041,-84.783175447,0,42
889,Georgia,CARROLL,OPEN,181,33.569477717,-85.07522619799991,0,181
890,Georgia,FAYETTE,OPEN,157,33.452147106,-84.50798999199999,0,282
891,Georgia,MERIWETHER,OPEN,52,32.8873263890001,-84.694070009,0,52
892,Georgia,CLAYTON,OPEN,0,33.582212956999996,-84.390716705,0,85
893,Georgia,DEKALB,OPEN,82,33.804878451,-84.33140996299991,0,82
894,Wisconsin,OUTAGAMIE,OPEN,25,44.3811562670001,-88.73370085299999,0,25
895,Wisconsin,MILWAUKEE,OPEN,275,42.936339069,-87.851172775,0,275
896,Wisconsin,MILWAUKEE,OPEN,62,42.95367246000011,-88.050969862,0,62
897,Wisconsin,MILWAUKEE,OPEN,938,42.989626226999995,-87.950210774,0,938
898,Wisconsin,MILWAUKEE,OPEN,350,43.001425045000104,-88.02347389100001,0,350
899,Wisconsin,ST. CROIX,OPEN,25,44.970893898,-92.37410374699991,0,25
900,Wisconsin,OCONTO,OPEN,10,44.8963803340001,-87.86555418299999,0,10
901,Louisiana,RAPIDES,OPEN,0,31.3176832830001,-92.4523319639999,0,47
902,Louisiana,TERREBONNE,OPEN,40,29.592987843000103,-90.71204306,0,40
903,Louisiana,JEFFERSON,OPEN,473,29.961401751999997,-90.145550567,0,473
904,California,SAN JOAQUIN,CLOSED,24,38.12385822,-121.30590684100001,0,24
905,California,LOS ANGELES,OPEN,60,34.1794458260001,-118.53985620200001,0,60
906,California,ORANGE,OPEN,351,33.893548348,-117.927462694,0,351
907,Virginia,AUGUSTA,OPEN,255,38.0945244050001,-78.986837327,0,255
908,Colorado,DENVER,CLOSED,0,39.745251791,-104.968042951,0,0
909,Wisconsin,SAUK,CLOSED,36,43.2828539760001,-89.720064545,0,36
910,Wisconsin,WINNEBAGO,OPEN,182,44.1874895560001,-88.453384929,0,183
911,California,TUOLUMNE,OPEN,68,37.9796673370001,-120.390795557,0,68
912,California,SANTA BARBARA,OPEN,412,34.429466689,-119.723809039,0,412
913,Florida,ESCAMBIA,CLOSED,0,30.970393835,-87.257597991,0,34
914,Arizona,MARICOPA,OPEN,92,33.67112932,-111.922322403,0,92
915,Massachusetts,SUFFOLK,OPEN,455,42.2968005640001,-71.131797808,0,455
916,Massachusetts,SUFFOLK,OPEN,255,42.299580995,-71.101742982,0,255
917,Iowa,HARRISON,OPEN,25,41.5629436460001,-95.8856184699999,0,25
918,Connecticut,NEW HAVEN,OPEN,0,41.472884784,-72.856761249,0,137
919,Massachusetts,NORFOLK,OPEN,220,42.266535768000004,-71.195022427,0,220
920,Massachusetts,PLYMOUTH,OPEN,120,42.097623722,-70.764458636,0,120
921,Massachusetts,MIDDLESEX,OPEN,45,42.369626000000004,-71.249339,0,45
922,Massachusetts,NORFOLK,OPEN,157,42.144626552,-71.09882862599991,0,157
923,Michigan,ST. JOSEPH,OPEN,84,41.794628632000105,-85.40756479699999,0,84
924,Michigan,BARRY,OPEN,49,42.6447739010001,-85.30282524099991,0,49
925,Michigan,BAY,OPEN,338,43.588216427000106,-83.868396154,0,338
926,Michigan,WASHTENAW,OPEN,68,42.237571063000104,-83.600647596,0,68
927,Michigan,KENT,OPEN,119,42.956973878,-85.662746247,0,119
928,Michigan,HOUGHTON,OPEN,25,47.238783173000094,-88.443500848,0,25
929,Michigan,DICKINSON,OPEN,96,45.809878058,-88.044451237,0,96
930,Kansas,WILSON,OPEN,34,37.534067877,-95.8141520189999,0,34
931,Michigan,ONTONAGON,OPEN,25,46.865595361000004,-89.3016584599999,0,25
932,Michigan,OTSEGO,OPEN,46,45.035327075000104,-84.67491760199991,0,46
933,Michigan,SAGINAW,OPEN,0,43.473972276000005,-83.96493168599991,0,0
934,Minnesota,CHIPPEWA,OPEN,30,44.954461198000004,-95.711810715,0,30
935,Minnesota,MOWER,OPEN,82,43.6744847590001,-92.977649755,0,82
936,Missouri,NEWTON,OPEN,240,37.036513395,-94.50970927600001,0,240
937,Missouri,GREENE,OPEN,86,37.1449462520001,-93.27967732,0,86
938,Missouri,GREENE,OPEN,75,37.224782487,-93.2899637789999,0,75
939,Missouri,CLAY,OPEN,35,39.2192877640001,-94.58726916299999,0,35
940,Missouri,CLINTON,OPEN,58,39.7304349510001,-94.2180560309999,0,58
941,Missouri,JACKSON,OPEN,221,39.049544804,-94.34890382200001,0,221
942,Missouri,JACKSON,OPEN,46,38.9243011040001,-94.48118890099991,0,46
943,Missouri,JACKSON,OPEN,487,39.008899844,-94.5581250879999,0,487
944,Missouri,JACKSON,OPEN,100,39.011403301,-94.560016538,0,100
945,Missouri,JACKSON,OPEN,298,38.975391868,-94.39435345,0,298
946,Missouri,VERNON,OPEN,71,37.831184524,-94.36048553200001,0,71
947,Missouri,ATCHISON,OPEN,18,40.338548749,-95.3904538529999,0,18
948,Missouri,BATES,OPEN,60,38.249028437,-94.342885883,0,60
949,Missouri,BUCHANAN,OPEN,0,39.778489236,-94.81140259799999,0,108
950,Missouri,CASS,OPEN,71,38.815813023000004,-94.50300191299999,0,71
951,Missouri,NEWTON,OPEN,72,37.0507526270001,-94.507006825,0,72
952,Missouri,NEWTON,OPEN,72,37.0527312830001,-94.52679808799999,0,72
953,Missouri,NEWTON,OPEN,30,37.053538244,-94.5383814579999,0,30
954,Missouri,NEWTON,OPEN,49,36.866953957000106,-94.36946792100001,0,49
955,Missouri,ST. LOUIS,OPEN,493,38.6512908130001,-90.503223535,0,493
956,Missouri,ST. LOUIS,OPEN,113,38.6762228900001,-90.467997971,0,113
957,Missouri,ST. LOUIS,OPEN,35,38.6757077300001,-90.532178376,0,35
958,Missouri,ST. LOUIS,OPEN,34,38.709957914,-90.415448509,0,34
959,Missouri,ST. LOUIS,OPEN,482,38.7765816890001,-90.240358059,0,482
960,Missouri,STE. GENEVIEVE,OPEN,47,37.969342225,-90.05465490599991,0,47
961,Missouri,ST. FRANCOIS,OPEN,3,37.908057016,-90.5243640039999,0,3
962,Missouri,RIPLEY,OPEN,21,36.621297375,-90.82581957199992,0,21
963,Missouri,ST. CHARLES,OPEN,333,38.78090867,-90.4846205439999,0,333
964,Missouri,ST. CHARLES,OPEN,77,38.822150406999995,-90.88072100299999,0,77
965,Missouri,ST. CHARLES,OPEN,116,38.802796668,-90.77574674899991,0,116
966,Missouri,ST. CHARLES,OPEN,104,38.7149685030001,-90.671889256,0,104
967,Missouri,ST. CHARLES,OPEN,113,38.793605051,-90.57961531299999,0,113
968,Missouri,SALINE,OPEN,60,39.0914981720001,-93.21315913299999,0,60
969,Missouri,GRUNDY,OPEN,25,40.0678669850001,-93.581639673,0,25
970,Missouri,FRANKLIN,OPEN,148,38.5525900860001,-91.002134725,0,148
971,Missouri,GASCONADE,OPEN,24,38.693078127,-91.449585554,0,24
972,Missouri,IRON,OPEN,15,37.623123891,-90.644717949,0,15
973,Missouri,DENT,OPEN,55,37.66045595,-91.569352382,0,55
974,Missouri,WASHINGTON,OPEN,25,37.925973114,-90.772665815,0,25
975,Missouri,SULLIVAN,OPEN,25,40.2016272860001,-93.133814017,0,25
976,Missouri,PUTNAM,OPEN,15,40.48274509,-93.0056460179999,0,15
977,Missouri,PHELPS,OPEN,242,37.952489533000104,-91.78598298600001,0,242
978,Missouri,CAPE GIRARDEAU,OPEN,308,37.3035819400001,-89.571144976,0,308
979,Missouri,PERRY,OPEN,25,37.7308824240001,-89.8656301509999,0,25
980,Missouri,TEXAS,OPEN,66,37.316121685,-91.961168535,0,66
981,Missouri,ST. CLAIR,OPEN,12,38.192474944000004,-94.021254961,0,12
982,Missouri,HENRY,OPEN,41,38.5341333120001,-93.51852931699992,0,41
983,Missouri,LAFAYETTE,OPEN,32,39.1897287740001,-93.87727791100001,0,32
984,Missouri,BARRY,OPEN,18,36.674782572,-93.87209283700001,0,18
985,Missouri,RAY,OPEN,34,39.264377849,-93.957421142,0,34
986,Missouri,LIVINGSTON,OPEN,25,39.817141598,-93.551016211,0,25
987,Missouri,CAMDEN,OPEN,14,38.134963509,-92.62888933299999,0,14
988,Missouri,GREENE,OPEN,48,37.0989533850001,-93.234741947,0,48
989,Missouri,GREENE,OPEN,60,37.104586002000104,-93.23560209799999,0,60
990,Missouri,CEDAR,OPEN,25,37.860225318000104,-94.017012409,0,25
991,Missouri,ST. LOUIS,OPEN,767,38.5074234100001,-90.380018547,0,767
992,Mississippi,MONROE,OPEN,35,33.8201824110001,-88.54024448,0,35
993,North Carolina,MECKLENBURG,OPEN,91,35.406444182,-80.860260895,0,91
994,North Carolina,MECKLENBURG,OPEN,146,35.119984808000005,-80.714078413,0,146
995,North Carolina,MECKLENBURG,OPEN,80,35.210797600999996,-80.823521516,0,80
996,North Carolina,ROWAN,OPEN,268,35.681269842000106,-80.470707938,0,268
997,North Carolina,BLADEN,OPEN,58,34.622433926,-78.608004487,0,58
998,North Carolina,PASQUOTANK,OPEN,182,36.323596314,-76.2179333289999,0,182
999,Mississippi,LAUDERDALE,OPEN,154,32.409301676,-88.67599656799999,0,154
1000,Mississippi,RANKIN,OPEN,134,32.2866429870001,-90.03474780499991,0,134
1001,Mississippi,LAMAR,OPEN,50,31.166602235,-89.425213131,0,50
1002,Mississippi,RANKIN,OPEN,1479,32.2428057400001,-90.070245357,0,1479
1003,North Carolina,CLEVELAND,OPEN,102,35.2415605350001,-81.357057955,0,102
1004,North Carolina,DUPLIN,OPEN,101,34.965279679,-77.961913309,0,101
1005,North Carolina,FORSYTH,OPEN,22,36.0758375710001,-80.29676077499991,0,22
1006,North Carolina,JOHNSTON,OPEN,199,35.514414576,-78.33498077899999,0,199
1007,North Carolina,MCDOWELL,OPEN,65,35.66339557,-82.02847627999991,0,65
1008,North Carolina,HENDERSON,OPEN,222,35.320314362,-82.46708041800001,0,222
1009,North Carolina,HAYWOOD,OPEN,190,35.5253812770001,-82.9425088839999,0,190
1010,North Carolina,HALIFAX,OPEN,100,36.1291421440001,-77.429718658,0,100
1011,North Carolina,IREDELL,OPEN,149,35.8184286740001,-80.828714738,0,149
1012,North Carolina,IREDELL,OPEN,247,35.799261529,-80.8780683369999,0,247
1013,North Carolina,HERTFORD,OPEN,114,36.2854313030001,-76.9952349819999,0,114
1014,North Carolina,GUILFORD,OPEN,384,35.962823799,-80.01339431699991,0,384
1015,North Carolina,PERSON,OPEN,110,36.4084534690001,-78.984895239,0,110
1016,North Carolina,CHATHAM,OPEN,25,35.722954498,-79.420855358,0,25
1017,North Carolina,CHEROKEE,OPEN,191,35.072712896,-83.966662408,0,191
1018,North Carolina,ROBESON,OPEN,452,34.636910793,-79.01212953299991,0,452
1019,North Carolina,AVERY,OPEN,50,36.0603179240001,-81.88935711499991,0,50
1020,North Carolina,BRUNSWICK,OPEN,100,33.92966195,-78.0215903119999,0,100
1021,North Carolina,BUNCOMBE,OPEN,80,35.5622710920001,-82.53131981,0,80
1022,North Carolina,BURKE,OPEN,315,35.726391173,-81.654492279,0,315
1023,North Carolina,CUMBERLAND,OPEN,600,35.0318387250001,-78.9330536849999,0,600
1024,North Carolina,ANSON,OPEN,15,34.977721882,-80.11008562099991,0,15
1025,North Carolina,CLEVELAND,OPEN,28,35.241865106,-81.3565487499999,0,28
1026,North Carolina,CABARRUS,OPEN,40,35.442816061,-80.6008436509999,0,40
1027,North Carolina,HOKE,OPEN,8,35.02100061,-79.149218661,0,8
1028,North Carolina,GUILFORD,OPEN,30,36.091017988000004,-79.78604811299991,0,30
1029,North Dakota,MOUNTRAIL,OPEN,11,48.311293848999995,-102.380421892,0,11
1030,North Dakota,DICKEY,OPEN,20,46.1503806630001,-98.08889428200001,0,20
1031,North Dakota,STUTSMAN,OPEN,140,46.8843327650001,-98.684748531,0,140
1032,North Dakota,TOWNER,OPEN,20,48.493022002,-99.211136129,0,20
1033,North Dakota,TRAILL,OPEN,25,47.500743275,-97.31690786600001,0,25
1034,North Dakota,ROLETTE,OPEN,25,48.8626424080001,-99.615557842,0,25
1035,North Dakota,WILLIAMS,OPEN,25,48.1559507640001,-103.64601369799999,0,25
1036,Louisiana,EAST BATON ROUGE,OPEN,0,30.4447976340001,-91.097562355,0,24
1037,Florida,ORANGE,OPEN,174,28.409114054,-81.469593393,0,174
1038,Nebraska,KNOX,OPEN,23,42.465918343000105,-97.91689793599991,0,23
1039,Florida,ORANGE,OPEN,1368,28.574414350999998,-81.369996427,0,1368
1040,Florida,ORANGE,OPEN,295,28.539980254000103,-81.281540116,0,295
1041,Florida,ORANGE,OPEN,211,28.549662416,-81.5276599279999,0,211
1042,Florida,ORANGE,OPEN,35,28.5722967250001,-81.37044179600001,0,35
1043,Florida,OSCEOLA,OPEN,84,28.24362232,-81.30280672399991,0,84
1044,Florida,PALM BEACH,OPEN,401,26.5050572330001,-80.070563971,0,401
1045,Florida,PALM BEACH,OPEN,333,26.7254617310001,-80.0518812669999,0,333
1046,Florida,PALM BEACH,OPEN,245,26.761323589,-80.08787269300001,0,245
1047,Florida,PALM BEACH,OPEN,70,26.7829789510001,-80.1104593429999,0,70
1048,Florida,PALM BEACH,OPEN,460,26.755871143,-80.06246203099991,0,460
1049,Florida,PALM BEACH,OPEN,195,26.3561962630001,-80.199188577,0,195
1050,Florida,PALM BEACH,OPEN,236,26.784928027,-80.11247523600001,0,236
1051,Florida,PINELLAS,OPEN,168,28.132933815999998,-82.75778618,0,168
1052,Florida,PINELLAS,OPEN,613,27.952816746999996,-82.80369683800001,0,613
1053,Florida,PINELLAS,OPEN,215,27.8054392110001,-82.727538744,0,215
1054,Florida,HIGHLANDS,OPEN,147,27.539751274,-81.50920998399991,0,147
1055,Oregon,MARION,OPEN,27,44.9390394760001,-123.00457706200001,0,27
1056,Florida,HILLSBOROUGH,OPEN,365,28.0710959690001,-82.4240611769999,0,365
1057,Florida,HILLSBOROUGH,OPEN,93,28.064409101,-82.429277019,0,93
1058,Florida,HILLSBOROUGH,OPEN,60,28.0615605200001,-82.42284161,0,60
1059,Florida,HILLSBOROUGH,OPEN,147,28.015678848000103,-82.138929363,0,147
1060,Florida,HILLSBOROUGH,OPEN,108,28.1295801160001,-82.509675586,0,108
1061,Florida,HERNANDO,OPEN,66,28.532935538000103,-82.484208672,0,66
1062,Florida,UNION,OPEN,133,29.988435252,-82.357635252,0,133
1063,Florida,SARASOTA,OPEN,155,27.3019576310001,-82.453350609,0,155
1064,Florida,LEE,OPEN,291,26.639205177000104,-81.942022498,0,291
1065,Florida,VOLUSIA,OPEN,164,29.04365274,-81.3173440369999,0,164
1066,Florida,VOLUSIA,OPEN,80,29.284636683000002,-81.03686657,0,80
1067,Florida,VOLUSIA,OPEN,30,29.21401967,-81.068593274,0,30
1068,Florida,POLK,OPEN,160,27.8961999320001,-81.5652762679999,0,160
1069,Florida,BREVARD,OPEN,150,28.3601248030001,-80.62298516999991,0,150
1070,Florida,BREVARD,OPEN,298,28.334993796,-80.72282544099991,0,298
1071,Florida,BROWARD,OPEN,557,26.186461071999997,-80.11993790299991,0,557
1072,Florida,BROWARD,OPEN,178,25.990868152000104,-80.37275117899999,0,178
1073,Florida,MONROE,OPEN,49,24.5641986040001,-81.767407002,0,49
1074,Florida,BROWARD,OPEN,264,26.1264094490001,-80.205267662,0,264
1075,Florida,BROWARD,OPEN,317,26.212150328000103,-80.254154295,0,317
1076,Florida,MONROE,OPEN,25,25.006156544000103,-80.52230507899999,0,25
1077,Florida,MIAMI-DADE,OPEN,337,25.859785949000102,-80.214704105,0,337
1078,Florida,MIAMI-DADE,OPEN,249,25.4194064500001,-80.49142975099991,0,249
1079,Florida,MIAMI-DADE,OPEN,436,25.702107773,-80.294273177,0,436
1080,Florida,MARION,OPEN,94,29.1411010300001,-82.200081117,0,94
1081,New Hampshire,HILLSBOROUGH,OPEN,0,42.829012903,-71.6337901749999,0,0
1082,Florida,MANATEE,OPEN,37,27.475655166,-82.539686466,0,37
1083,Alabama,LIMESTONE,OPEN,71,34.8041639300001,-86.978407208,0,71
1084,Alabama,JEFFERSON,OPEN,607,33.463730942,-86.77625338899999,0,607
1085,Alabama,JEFFERSON,OPEN,332,33.504048154,-86.8051591399999,0,332
1086,Alabama,SHELBY,OPEN,45,33.4149192100001,-86.6860220629999,0,45
1087,Alabama,JEFFERSON,OPEN,38,33.464103937000104,-86.777332621,0,38
1088,Alabama,JEFFERSON,OPEN,1157,33.505603291999996,-86.80203539699991,0,1157
1089,Alabama,ESCAMBIA,OPEN,91,31.127033909,-87.0734993039999,0,91
1090,Alabama,WILCOX,OPEN,30,31.9975251480001,-87.300257836,0,30
1091,Alabama,WASHINGTON,OPEN,25,31.459538148000004,-88.23507989299999,0,25
1092,Alabama,MARENGO,OPEN,99,32.504788530999996,-87.8363988,0,99
1093,Alabama,HOUSTON,OPEN,38,31.203815636999998,-85.38460111599991,0,38
1094,Alabama,COFFEE,OPEN,131,31.318772396,-85.855369739,0,131
1095,Alabama,CONECUH,OPEN,58,31.430798572000104,-86.940483587,0,58
1096,Alabama,FAYETTE,OPEN,61,33.70817814,-87.82468898199991,0,61
1097,Alabama,ETOWAH,OPEN,68,34.072425745,-86.019766069,0,68
1098,Ohio,ATHENS,OPEN,132,39.327952657,-82.11543397799991,0,132
1099,Alabama,MADISON,OPEN,147,34.693611397,-86.572171543,0,147
1100,Alabama,MADISON,OPEN,20,34.75317024,-86.66569635399999,0,20
1101,Ohio,BUTLER,OPEN,70,39.512596159000104,-84.74153696,0,70
1102,Alabama,CALHOUN,OPEN,104,33.784932246,-85.76355079,0,104
1103,Alabama,WALKER,OPEN,267,33.842728904000104,-87.235999582,0,267
1104,Iowa,UNION,OPEN,25,41.0701663900001,-94.38409500599991,0,25
1105,Ohio,CLARK,CLOSED,0,39.940974693,-83.811341856,0,0
1106,Alabama,MONTGOMERY,OPEN,70,32.3191069820001,-86.280709803,0,70
1107,Alabama,MONTGOMERY,OPEN,344,32.3669529960001,-86.28538554499991,0,344
1108,Alabama,LAWRENCE,OPEN,98,34.483414651,-87.285310435,0,98
1109,Ohio,COSHOCTON,OPEN,56,40.2708463820001,-81.847763668,0,56
1110,Alabama,TUSCALOOSA,OPEN,204,33.23398145,-87.570910898,0,204
1111,Alabama,COVINGTON,OPEN,99,31.291958238000102,-86.25452692299999,0,99
1112,Alabama,DALE,OPEN,89,31.4515766550001,-85.632088035,0,89
1113,Ohio,CRAWFORD,OPEN,25,40.8153398970001,-82.976632127,0,25
1114,Ohio,CRAWFORD,OPEN,50,40.730903767,-82.802257211,0,50
1115,Alabama,FRANKLIN,OPEN,25,34.458105759,-88.14732506199991,0,25
1116,Alabama,COLBERT,OPEN,185,34.745950151,-87.70026146100001,0,185
1117,Ohio,CUYAHOGA,OPEN,29,41.4502446440001,-81.824139117,0,29
1118,Alabama,TALLADEGA,OPEN,163,33.164560226,-86.25548758199992,0,163
1119,Alabama,TALLADEGA,OPEN,122,33.4402768210001,-86.0907833959999,0,122
1120,Alabama,TUSCALOOSA,OPEN,0,33.1899356690001,-87.488317847,0,0
1121,Alabama,BULLOCK,OPEN,61,32.146635109,-85.71700932600001,0,61
1122,Alabama,ELMORE,OPEN,69,32.552266972,-86.1863964459999,0,69
1123,Ohio,CUYAHOGA,OPEN,1032,41.506142051,-81.60509543399999,0,1032
1124,Ohio,CUYAHOGA,OPEN,1268,41.502750961000096,-81.620792669,0,1268
1125,Ohio,CUYAHOGA,OPEN,144,41.4521988720001,-81.4946935689999,0,144
1126,Ohio,CUYAHOGA,OPEN,348,41.3821198360001,-81.731394677,0,348
1127,Ohio,DARKE,OPEN,104,40.089291771999996,-84.634741097,0,104
1128,Pennsylvania,LYCOMING,OPEN,228,41.247010628000105,-77.015966971,0,228
1129,Wyoming,NATRONA,OPEN,41,42.844225533,-106.242370132,0,41
1130,Alabama,TUSCALOOSA,OPEN,0,33.2190660000001,-87.53398100000001,0,96
1131,Ohio,DELAWARE,OPEN,152,40.305514024000004,-83.089252856,0,152
1132,,CIDRA,OPEN,0,18.176038959,-66.16140123299989,0,216
1133,Pennsylvania,YORK,OPEN,0,39.926192787,-76.71895855,0,73
1134,,BAYAMON,OPEN,102,18.367570404000002,-66.154124489,0,102
1135,,BAYAMON,OPEN,150,18.3968147580001,-66.16344890100001,0,150
1136,Ohio,FRANKLIN,OPEN,72,40.1038159390001,-83.170971659,0,72
1137,New Jersey,BURLINGTON,OPEN,18,39.8830950230001,-74.918054591,0,18
1138,New Jersey,ATLANTIC,OPEN,29,39.361028526999995,-74.426406086,0,29
1139,New Jersey,ATLANTIC,OPEN,349,39.478982624000004,-74.540072967,0,349
1140,New Jersey,ATLANTIC,CLOSED,130,39.6322362600001,-74.77258355899991,0,130
1141,New Jersey,BERGEN,OPEN,510,40.956667775,-74.06299171599991,0,510
1142,New Jersey,BERGEN,OPEN,372,40.88299153,-74.0104003289999,0,372
1143,New Jersey,PASSAIC,OPEN,229,40.947123557000104,-74.20271983,0,229
1144,New Jersey,GLOUCESTER,OPEN,68,39.635474581,-75.035103877,0,68
1145,New Jersey,ESSEX,OPEN,40,40.7371696590001,-74.170737958,0,40
1146,New Jersey,ESSEX,OPEN,469,40.7856713480001,-74.17632111399999,0,469
1147,New Jersey,ESSEX,OPEN,212,40.754603563,-74.2136013959999,0,212
1148,New Jersey,CUMBERLAND,OPEN,335,39.445475716,-75.05896898399999,0,335
1149,New Jersey,HUDSON,OPEN,234,40.791830307000104,-74.073236514,0,234
1150,Iowa,WOODBURY,CLOSED,0,42.513473445,-96.396444505,0,0
1151,New Jersey,UNION,OPEN,60,40.659108964,-74.197587997,0,60
1152,New Jersey,SUSSEX,CLOSED,0,41.2070241850001,-74.603497895,0,0
1153,New Jersey,SUSSEX,OPEN,146,41.0576481510001,-74.768442831,0,146
1154,New Jersey,MIDDLESEX,OPEN,26,40.518962531999996,-74.281102652,0,26
1155,New Jersey,MIDDLESEX,OPEN,0,40.496357130999996,-74.44912580499991,0,0
1156,New Jersey,MERCER,OPEN,238,40.216522184,-74.74165161,0,238
1157,New Jersey,MORRIS,OPEN,450,40.8389665940001,-74.51025497399999,0,450
1158,New Jersey,OCEAN,OPEN,92,39.9626114210001,-74.217409732,0,92
1159,New Jersey,OCEAN,OPEN,40,40.0121504680001,-74.21490921,0,40
1160,New Jersey,OCEAN,OPEN,281,40.077183008000105,-74.1314468429999,0,281
1161,New Jersey,MORRIS,OPEN,38,40.789620917,-74.4891805359999,0,38
1162,New Jersey,HUDSON,OPEN,261,40.668303693,-74.11271394100001,0,261
1163,New Jersey,HUDSON,OPEN,358,40.734267624,-74.04995826899992,0,358
1164,New Jersey,MIDDLESEX,OPEN,68,40.494825098,-74.451690392,0,68
1165,New Jersey,OCEAN,OPEN,50,40.0730650310001,-74.2190055949999,0,50
1166,New Jersey,SOMERSET,OPEN,16,40.467623136,-74.68519623600001,0,16
1167,New Jersey,BERGEN,OPEN,128,40.9856164440001,-74.015681376,0,128
1168,New Jersey,CUMBERLAND,OPEN,30,39.4451618910001,-75.052593407,0,30
1169,New Jersey,HUDSON,OPEN,174,40.7854055760001,-74.057816885,0,174
1170,Ohio,GUERNSEY,OPEN,66,40.066895839000004,-81.582060309,0,66
1171,Ohio,GUERNSEY,OPEN,189,40.0414731870001,-81.5773923359999,0,189
1172,,GUAYAMA,OPEN,86,17.980770922,-66.106166118,0,86
1173,Ohio,HAMILTON,OPEN,74,39.1926339440001,-84.5438764479999,0,74
1174,Ohio,HAMILTON,OPEN,209,39.2059509790001,-84.38094165,0,209
1175,,PONCE,OPEN,49,18.0332502100001,-66.593130348,0,49
1176,Ohio,HAMILTON,OPEN,30,39.121299406999995,-84.510407282,0,30
1177,Ohio,HAMILTON,OPEN,268,39.139413643000104,-84.50819455199999,0,268
1178,Arizona,PIMA,OPEN,541,32.2523042510001,-110.879298849,0,541
1179,Ohio,LUCAS,OPEN,91,41.6212019920001,-83.4804910559999,0,91
1180,Ohio,LUCAS,OPEN,559,41.7089406530001,-83.6913462749999,0,559
1181,Ohio,LUCAS,OPEN,45,41.719190452000106,-83.669070275,0,45
1182,Ohio,LUCAS,OPEN,128,41.693599299,-83.62568152899999,0,128
1183,New Mexico,SANTA FE,OPEN,19,35.633465363,-105.96329577899999,0,19
1184,New Mexico,TAOS,OPEN,29,36.3685436600001,-105.57688812,0,29
1185,Wisconsin,BROWN,OPEN,244,44.50224209,-88.011285591,0,244
1186,New Mexico,QUAY,OPEN,25,35.1566324400001,-103.722574505,0,25
1187,Arizona,MARICOPA,OPEN,19,33.313908692,-111.687427336,0,19
1188,New Mexico,COLFAX,OPEN,25,36.8626589900001,-104.44211024799999,0,25
1189,Texas,TRAVIS,OPEN,36,30.3451048360001,-97.97010222799999,0,36
1190,Nevada,WASHOE,OPEN,30,39.5315412250001,-119.77483093299999,0,50
1191,Wisconsin,BROWN,OPEN,80,44.484314673,-88.01625509799999,0,80
1192,Nevada,CLARK,OPEN,79,36.1567317720001,-115.194223439,0,79
1193,Nevada,CLARK,OPEN,199,36.1630915430001,-115.162811854,0,199
1194,Ohio,MONTGOMERY,OPEN,12,39.7482480800001,-84.19940099,0,12
1195,Indiana,LAGRANGE,OPEN,25,41.6458040900001,-85.4261370569999,0,25
1196,Ohio,MONTGOMERY,OPEN,108,39.637702931,-84.249272494,0,108
1197,Nevada,CLARK,OPEN,24,36.1165861580001,-115.110384599,0,24
1198,Ohio,MONTGOMERY,OPEN,491,39.7875513380001,-84.23333439,0,491
1199,Ohio,MORROW,OPEN,22,40.547981168,-82.850406603,0,22
1200,Washington DC,DISTRICT OF COLUMBIA,OPEN,292,38.8479278680001,-76.98825526899999,0,292
1201,Washington DC,DISTRICT OF COLUMBIA,OPEN,177,38.8929214200001,-76.995863417,0,177
1202,Nevada,CLARK,OPEN,21,36.1212914930001,-115.22335527700001,0,19
1203,Ohio,RICHLAND,OPEN,40,40.882406732,-82.674175077,0,40
1204,Ohio,ROSS,OPEN,261,39.3964977740001,-82.9676161089999,0,261
1205,Arizona,MARICOPA,OPEN,111,33.411692068,-111.68649231399999,0,111
1206,Florida,JACKSON,OPEN,62,30.786844413,-85.241314825,0,62
1207,Indiana,ALLEN,OPEN,131,41.17526916,-85.108930621,0,131
1208,Indiana,ALLEN,OPEN,37,41.1895775790001,-85.10066957399991,0,37
1209,Nevada,LYON,CLOSED,0,39.3955395770001,-119.27927911100001,0,0
1210,Nevada,CLARK,OPEN,139,36.072656244,-115.29523923299999,0,246
1211,Nevada,CLARK,OPEN,190,36.157455668000104,-115.22660910299999,0,274
1212,Indiana,RIPLEY,OPEN,25,39.3050248960001,-85.222526188,0,25
1213,Indiana,DEARBORN,OPEN,16,39.109798476,-84.88253391800001,0,16
1214,Iowa,SCOTT,OPEN,50,41.5591535990001,-90.5890272889999,0,50
1215,Indiana,DAVIESS,OPEN,80,38.659613843,-87.159752398,0,80
1216,Indiana,NOBLE,OPEN,31,41.4483403450001,-85.29615831099991,0,31
1217,Nevada,WASHOE,OPEN,60,39.436308327000106,-119.759590788,0,39
1218,Ohio,SENECA,OPEN,120,41.103767023,-83.2162628139999,0,120
1219,Indiana,VANDERBURGH,OPEN,509,37.983739541,-87.57110677600001,0,509
1220,Indiana,VANDERBURGH,OPEN,168,37.9728535570001,-87.50155370799999,0,168
1221,Indiana,VIGO,OPEN,16,39.485410861999995,-87.40998362200001,0,16
1222,Maryland,BALTIMORE CITY,OPEN,125,39.2883463000001,-76.649252984,0,125
1223,Utah,UTAH,OPEN,0,40.310669022000106,-111.663795605,0,80
1224,Utah,BEAVER,OPEN,23,38.4018090600001,-113.010658259,0,23
1225,Utah,SALT LAKE,OPEN,0,40.541743873,-112.01335267299999,0,0
1226,Maryland,BALTIMORE,OPEN,425,39.2647554970001,-76.7225854009999,0,425
1227,Alaska,NOME,OPEN,36,64.4991221940001,-165.37818878299998,0,36
1228,Indiana,ELKHART,OPEN,270,41.6793473500001,-85.993270563,0,270
1229,Indiana,ELKHART,OPEN,16,41.6036041190001,-85.839485402,0,16
1230,Indiana,DELAWARE,OPEN,379,40.196777534,-85.415555943,0,379
1231,Indiana,MORGAN,OPEN,92,39.42589574,-86.404838995,0,92
1232,Indiana,WARRICK,OPEN,48,37.992909968,-87.33152850299999,0,48
1233,Indiana,LAKE,OPEN,458,41.5506175090001,-87.505909606,0,458
1234,Indiana,LAKE,OPEN,536,41.599559432,-87.35767033399999,0,536
1235,Indiana,TIPPECANOE,OPEN,186,40.3940202320001,-86.834549059,0,186
1236,Iowa,BLACK HAWK,OPEN,12,42.5267548160001,-92.33893747,0,12
1237,Indiana,JOHNSON,OPEN,52,39.629988800999996,-86.07559329700001,0,52
1238,Indiana,TIPTON,OPEN,25,40.2719303540001,-86.04216225299999,0,25
1239,Indiana,TIPPECANOE,OPEN,302,40.427286859,-86.88144621100001,0,302
1240,Indiana,GRANT,OPEN,97,40.5636952030001,-85.66416325899999,0,97
1241,Indiana,MARSHALL,OPEN,24,41.456467767,-86.1588497229999,0,24
1242,Indiana,MARSHALL,OPEN,37,41.443335034,-86.150319348,0,37
1243,Indiana,HUNTINGTON,OPEN,36,40.9058777380001,-85.48874698299991,0,36
1244,Ohio,SUMMIT,OPEN,271,41.0150713310001,-81.5889978229999,0,271
1245,Ohio,SUMMIT,OPEN,392,41.097634391999996,-81.514073309,0,392
1246,Indiana,FAYETTE,OPEN,99,39.6562381750001,-85.1326609979999,0,99
1247,Ohio,SUMMIT,OPEN,45,41.014583541,-81.589116796,0,45
1248,Indiana,WHITE,OPEN,25,40.733974689,-86.777599605,0,25
1249,Indiana,MARION,OPEN,159,39.802493552,-86.201292048,0,159
1250,Arizona,MARICOPA,OPEN,58,33.4926529410001,-112.071994754,0,58
1251,Arizona,MARICOPA,CLOSED,62,33.587592101999995,-111.883449988,0,62
1252,Arizona,MARICOPA,OPEN,136,33.639758182,-111.997469967,0,136
1253,Connecticut,WINDHAM,OPEN,104,41.9066599810001,-71.91445520399999,0,104
1254,Connecticut,WINDHAM,OPEN,130,41.7173006410001,-72.226375264,0,130
1255,Connecticut,NEW HAVEN,OPEN,87,41.2165846300001,-73.0650149849999,0,87
1256,Connecticut,NEW HAVEN,OPEN,160,41.335612997000105,-73.089205142,0,160
1257,Connecticut,HARTFORD,OPEN,229,41.661048674,-72.787748396,0,229
1258,Indiana,FLOYD,OPEN,225,38.301364385999996,-85.834335192,0,225
1259,Indiana,FLOYD,OPEN,12,38.339954129,-85.827989949,0,12
1260,Arizona,COCONINO,OPEN,16,35.20669667,-111.606493954,0,16
1261,Florida,OKALOOSA,OPEN,110,30.735354627,-86.56252528600001,0,110
1262,Florida,COLUMBIA,OPEN,180,30.18182054,-82.636053465,0,180
1263,Arizona,MARICOPA,OPEN,12,33.6436695850001,-111.89837164,0,12
1264,Florida,SANTA ROSA,OPEN,100,30.634375370999997,-87.04253328200001,0,100
1265,Florida,LEON,OPEN,772,30.456880933,-84.261407288,0,772
1266,Florida,ESCAMBIA,OPEN,492,30.429417895,-87.230420903,0,492
1267,Florida,DUVAL,OPEN,226,30.138777863,-81.53538488899991,0,226
1268,Florida,DUVAL,OPEN,160,30.290213743000002,-81.60117475399991,0,160
1269,Florida,DUVAL,OPEN,107,30.271624401999997,-81.615461889,0,107
1270,Florida,BAY,OPEN,323,30.1597318300001,-85.64753237799991,0,323
1271,Florida,BAY,OPEN,75,30.181889921,-85.669174992,0,75
1272,Florida,WALTON,OPEN,50,30.6597162210001,-86.117950419,0,50
1273,Nevada,CARSON CITY,OPEN,185,39.2021195900001,-119.78438309200001,0,211
1274,Pennsylvania,CHESTER,OPEN,59,39.8220390000001,-75.887734999,0,59
1275,Missouri,ST. LOUIS CITY,OPEN,1110,38.6356744670001,-90.264716055,0,1110
1276,Pennsylvania,ERIE,CLOSED,35,41.9246130010001,-79.653311999,0,35
1277,Massachusetts,DUKES,OPEN,25,41.4608000000001,-70.5798,0,25
1278,Massachusetts,BRISTOL,OPEN,391,41.6264,-70.9383999999999,0,391
1279,Massachusetts,BERKSHIRE,OPEN,298,42.46,-73.2492,0,298
1280,Massachusetts,BARNSTABLE,OPEN,252,41.6534,-70.2728999999999,0,252
1281,Arizona,COCHISE,CLOSED,0,31.551398630999998,-110.27167493200001,0,0
1282,Wisconsin,ROCK,OPEN,256,42.5482977120001,-89.008431523,0,256
1283,Ohio,CUYAHOGA,OPEN,585,41.5132563880001,-81.61370354399999,0,585
1284,Indiana,MADISON,OPEN,195,40.095484936,-85.681305944,0,195
1285,Massachusetts,SUFFOLK,OPEN,159,42.2775,-71.0654,0,159
1286,Massachusetts,WORCESTER,OPEN,41,42.4275000000001,-71.6929,0,41
1287,Massachusetts,WORCESTER,OPEN,134,42.5863000000001,-71.9870999999999,0,134
1288,Massachusetts,WORCESTER,OPEN,303,42.2729,-71.7923,0,303
1289,Massachusetts,MIDDLESEX,OPEN,157,42.6457,-71.3008,0,157
1290,Massachusetts,MIDDLESEX,OPEN,265,42.3312000000001,-71.24600000000001,0,265
1291,Illinois,COOK,OPEN,172,41.8914014040001,-87.776179564,0,172
1292,Massachusetts,MIDDLESEX,OPEN,189,42.3745000000001,-71.1041,0,189
1293,Massachusetts,MIDDLESEX,OPEN,0,42.4093,-71.0393999999999,0,0
1294,Massachusetts,HAMPDEN,OPEN,131,42.1659000000001,-72.634,0,131
1295,Massachusetts,HAMPDEN,OPEN,724,42.1217,-72.6032,0,724
1296,Minnesota,STEELE,OPEN,43,44.112013703000095,-93.25109201,0,43
1297,Minnesota,RAMSEY,OPEN,546,44.943379813,-93.107144935,0,546
1298,Minnesota,HENNEPIN,OPEN,92,44.992303208000095,-93.333675738,0,92
1299,Idaho,ADA,OPEN,384,43.61343279500011,-116.25580809799999,0,384
1300,Idaho,KOOTENAI,OPEN,292,47.69550331600001,-116.79370267200001,0,292
1301,New York,SUFFOLK,OPEN,603,40.909194455,-73.115678223,0,603
1302,Kentucky,UNION,OPEN,25,37.628796461,-87.94765598,0,25
1303,Idaho,NEZ PERCE,OPEN,145,46.416439735,-117.024366109,0,145
1304,New York,DUTCHESS,OPEN,243,41.717838388000104,-73.927709353,0,243
1305,Texas,CRANE,OPEN,25,31.389552852000104,-102.349905603,0,25
1306,Texas,CROSBY,OPEN,25,33.660618823,-101.24610241299999,0,25
1307,Kentucky,SHELBY,OPEN,70,38.209027706,-85.23592218,0,70
1308,Kentucky,SIMPSON,OPEN,25,36.700017579000104,-86.576828386,0,25
1309,Texas,CLAY,OPEN,25,33.8143726860001,-98.19848414599991,0,25
1310,Texas,WINKLER,OPEN,19,31.8495920550001,-103.090562621,0,19
1311,Texas,LIBERTY,OPEN,25,30.068823366999997,-94.79849135099991,0,25
1312,Texas,FLOYD,OPEN,25,34.1270774830001,-101.441245263,0,25
1313,Maryland,FREDERICK,OPEN,308,39.42265668,-77.414661114,0,308
1314,Illinois,COOK,OPEN,128,41.8663295280001,-87.76746424299989,0,128
1315,Illinois,COOK,OPEN,240,41.870737816,-87.67704148199991,0,240
1316,Illinois,COOK,OPEN,377,41.6692109270001,-87.813443996,0,377
1317,Illinois,COOK,OPEN,115,41.692299414000004,-87.626009757,0,115
1318,Wisconsin,JACKSON,OPEN,25,44.303241097000104,-90.855151436,0,25
1319,West Virginia,KANAWHA,OPEN,241,38.354865105,-81.726866523,0,241
1320,West Virginia,HARRISON,OPEN,292,39.328309999999995,-80.23946,0,292
1321,Wisconsin,BURNETT,OPEN,25,45.7749598560001,-92.68689511299999,0,25
1322,Wisconsin,WINNEBAGO,OPEN,42,44.187135058000095,-88.454440227,0,42
1323,Wisconsin,MILWAUKEE,OPEN,298,43.042353999999996,-88.024153,0,298
1324,Wisconsin,COLUMBIA,OPEN,25,43.3226073540001,-89.035370684,0,25
1325,West Virginia,KANAWHA,OPEN,0,38.329726136,-81.602948596,0,0
1326,Illinois,RICHLAND,OPEN,90,38.736543571,-88.0771728889999,0,90
1327,Oklahoma,MCINTOSH,CLOSED,10,35.3109667040001,-95.59181606999991,0,10
1328,Kentucky,CHRISTIAN,OPEN,97,36.7382516600001,-87.468403327,0,97
1329,Kentucky,CHRISTIAN,OPEN,194,36.861187116000096,-87.4949512479999,0,194
1330,West Virginia,KANAWHA,OPEN,0,38.343354733000105,-81.630054018,0,35
1331,West Virginia,OHIO,OPEN,218,40.060074578000105,-80.721680642,0,218
1332,Illinois,MADISON,OPEN,154,38.736770578000105,-89.946707681,0,154
1333,Oklahoma,MUSKOGEE,OPEN,45,35.7825795110001,-95.356256914,0,45
1334,Oklahoma,GARFIELD,OPEN,24,36.3926324610001,-97.8740892439999,0,24
1335,Kentucky,DAVIESS,OPEN,80,37.784866924,-87.157643566,0,80
1336,Oklahoma,CLEVELAND,OPEN,182,35.2290112250001,-97.426618176,0,182
1337,Oklahoma,TULSA,OPEN,43,36.051186509000004,-95.863480743,0,40
1338,Oklahoma,KINGFISHER,OPEN,25,35.8102394260001,-97.94491270200001,0,25
1339,Vermont,LAMOILLE,OPEN,25,44.55343518000011,-72.591430293,0,25
1340,Illinois,MONTGOMERY,OPEN,25,39.150930343,-89.48004310999991,0,25
1341,Illinois,JACKSON,OPEN,25,37.773712337000106,-89.3247550139999,0,25
1342,Illinois,WABASH,OPEN,25,38.4206069270001,-87.76938884100001,0,25
1343,Alaska,ALEUTIANS WEST,OPEN,0,51.868005,-176.64026299999998,0,0
1344,Wisconsin,WAUKESHA,OPEN,237,43.1643527570001,-88.13760545199992,0,237
1345,Wisconsin,CRAWFORD,OPEN,25,43.021873052,-91.11312718399991,0,25
1346,Wisconsin,BARRON,OPEN,25,45.530849973,-92.028589618,0,25
1347,Wisconsin,COLUMBIA,OPEN,73,43.56694998500011,-89.46651060100001,0,73
1348,Wisconsin,DOOR,OPEN,25,44.832702698,-87.3533355339999,0,25
1349,Wisconsin,ROCK,OPEN,18,42.8347133400001,-89.044267249,0,18
1350,Texas,HARRIS,OPEN,1082,29.714551173000103,-95.39628202599991,0,1082
1351,,MAYAGUEZ,OPEN,103,18.2027329920001,-67.139826394,0,103
1352,,SAN JUAN,OPEN,150,18.398765968000102,-66.039098297,0,150
1353,Kansas,SEDGWICK,OPEN,54,37.7500383830001,-97.22754326799999,0,54
1354,Kansas,SEDGWICK,OPEN,38,37.7435730180001,-97.22721518899999,0,38
1355,Kansas,SMITH,OPEN,53,39.7710886180001,-98.78484224999991,0,53
1356,Kansas,SHAWNEE,OPEN,394,39.050787975,-95.696512006,0,394
1357,,SAN JUAN,OPEN,0,18.390790999,-66.076297547,0,0
1358,Kentucky,JEFFERSON,OPEN,271,38.248470297,-85.74959418,0,271
1359,,NOT AVAILABLE,OPEN,169,18.340605,-64.9147169999999,0,169
1360,Hawaii,HONOLULU,OPEN,0,21.361342999999998,-157.889402,0,92
1361,Texas,TAYLOR,OPEN,522,32.472176468,-99.733954404,0,522
1362,Texas,HENDERSON,OPEN,117,32.1694446990001,-95.8462337029999,0,117
1363,Texas,POTTER,OPEN,385,35.199669431000096,-101.920234741,0,385
1364,Texas,JEFFERSON,OPEN,431,30.087341816,-94.13180846899999,0,431
1365,Texas,AUSTIN,OPEN,32,29.9531581320001,-96.260097768,0,32
1366,Texas,BRAZOS,OPEN,235,30.6561370050001,-96.345972906,0,235
1367,Texas,BRAZOS,OPEN,16,30.6503293750001,-96.29771227,0,16
1368,Texas,CAMERON,OPEN,280,25.9178480640001,-97.510696549,0,280
1369,Texas,CAMERON,OPEN,214,25.9776129860001,-97.51480112,0,214
1370,Illinois,COOK,OPEN,100,41.778394561,-87.6336013389999,0,100
1371,Texas,BROWN,OPEN,194,31.677343922,-98.993833841,0,194
1372,Texas,PANOLA,OPEN,49,32.1658825980001,-94.346596013,0,49
1373,Texas,CHILDRESS,OPEN,39,34.439266784000004,-100.22673330100001,0,39
1374,Texas,BRAZOS,OPEN,167,30.581323812000104,-96.2899901489999,0,167
1375,Texas,MONTGOMERY,OPEN,322,30.284723924,-95.468004921,0,322
1376,Texas,NUECES,OPEN,341,27.7798902010001,-97.41636490299999,0,341
1377,Texas,NUECES,OPEN,152,27.693280704000102,-97.345413561,0,152
1378,Texas,HARRIS,OPEN,139,29.9256748500001,-95.631762225,0,139
1379,Texas,DALLAS,OPEN,148,32.811980307000105,-96.839731405,0,148
1380,Florida,CHARLOTTE,OPEN,0,26.939444425,-82.040526139,0,52
1381,Florida,MARTIN,OPEN,0,26.9770683790001,-80.1016992369999,0,80
1382,Texas,DENTON,OPEN,255,33.217615382000105,-97.166588955,0,255
1383,Texas,MOORE,OPEN,25,35.8644955610001,-101.970558165,0,25
1384,Texas,MAVERICK,OPEN,101,28.7129924860001,-100.455700597,0,101
1385,Florida,ESCAMBIA,OPEN,0,30.4323569000001,-87.233155885,0,16
1386,Florida,ST. LUCIE,OPEN,24,27.4338006610001,-80.3456378779999,0,24
1387,Texas,HIDALGO,OPEN,253,26.252712438000103,-98.20495353,0,253
1388,Texas,EL PASO,OPEN,394,31.771611087000103,-106.43535520100001,0,394
1389,Texas,EL PASO,OPEN,508,31.771003758000102,-106.49987344600001,0,508
1390,Texas,EL PASO,OPEN,351,31.777492427,-106.48086745200001,0,351
1391,Texas,ELLIS,OPEN,60,32.306724548000005,-96.641491039,0,60
1392,Texas,TARRANT,OPEN,726,32.736755673000104,-97.3389969839999,0,726
1393,Texas,TARRANT,OPEN,567,32.727080034000004,-97.32710127600001,0,567
1394,Texas,TARRANT,OPEN,572,32.6650680070001,-97.41721975,0,572
1395,Texas,TARRANT,OPEN,356,32.586628079,-97.31695510700001,0,356
1396,Texas,DALLAS,OPEN,113,32.9190262010001,-96.6619009349999,0,113
1397,Texas,TARRANT,OPEN,314,32.93443023,-97.09438350399991,0,314
1398,Texas,CAMERON,OPEN,112,26.157450306999998,-97.675302863,0,112
1399,Texas,CAMERON,OPEN,586,26.174964835,-97.66995665299999,0,586
1400,Texas,HILL,OPEN,116,32.01263139,-97.09925968200001,0,116
1401,Texas,HARRIS,OPEN,621,29.7077784790001,-95.40165263200001,0,621
1402,Texas,HARRIS,OPEN,458,29.710982363000003,-95.3945517,0,458
1403,Texas,HARRIS,OPEN,397,29.692950216999996,-95.402404231,0,397
1404,Texas,HARRIS,OPEN,106,29.847812773,-95.40845777,0,106
1405,Texas,WALKER,OPEN,123,30.698549991,-95.558986955,0,123
1406,Texas,PECOS,OPEN,14,30.914830881999997,-101.90744429600001,0,14
1407,Texas,DALLAS,OPEN,296,32.8345893910001,-96.96024939599991,0,296
1408,Texas,KLEBERG,OPEN,100,27.4900728110001,-97.850653784,0,100
1409,Texas,FAYETTE,OPEN,65,29.935752798000102,-96.8762470629999,0,65
1410,Texas,WEBB,OPEN,326,27.532859758,-99.47829169299999,0,326
1411,Texas,DENTON,OPEN,202,33.0452460390001,-97.004762802,0,202
1412,Texas,GREGG,OPEN,230,32.532885035999996,-94.7305140989999,0,230
1413,Texas,LUBBOCK,OPEN,525,33.5769391330001,-101.891995039,0,525
1414,Texas,LUBBOCK,OPEN,412,33.587967135,-101.89129850799999,0,412
1415,Texas,ANGELINA,OPEN,149,31.328399474,-94.754058839,0,149
1416,Iowa,CLINTON,OPEN,90,41.826453330999996,-90.547482289,0,90
1417,Iowa,STORY,OPEN,17,42.005062341,-93.43691302399999,0,17
1418,Iowa,LYON,OPEN,25,43.423830007,-96.171989592,0,25
1419,Texas,TARRANT,OPEN,254,32.567989942000104,-97.0944448449999,0,254
1420,Texas,FALLS,OPEN,36,31.307202447000105,-96.894003203,0,36
1421,Texas,HARRISON,OPEN,149,32.5368064990001,-94.36946191700001,0,149
1422,Texas,HIDALGO,OPEN,320,26.186362489,-98.220773774,0,320
1423,Texas,DALLAS,OPEN,202,32.7787904750001,-96.6005102949999,0,202
1424,Texas,MIDLAND,OPEN,468,31.9959200870001,-102.09950331200001,0,468
1425,Texas,PALO PINTO,OPEN,74,32.798920755,-98.1450907829999,0,74
1426,Texas,NACOGDOCHES,OPEN,216,31.6126410900001,-94.64887738799999,0,216
1427,Texas,MONTAGUE,OPEN,38,33.777274419,-97.7327010339999,0,38
1428,Illinois,DUPAGE,OPEN,0,41.7606303150001,-88.149923139,0,0
1429,Texas,ECTOR,OPEN,402,31.844904172,-102.373613781,0,402
1430,Texas,ECTOR,OPEN,230,31.8517284660001,-102.364203014,0,230
1431,Illinois,COOK,OPEN,690,42.065533499000004,-87.6847127729999,0,690
1432,Texas,COLLIN,OPEN,493,33.020893003000005,-96.766015199,0,493
1433,Texas,FRANKLIN,CLOSED,49,33.176716387000106,-95.23494579,0,49
1434,Texas,OCHILTREE,OPEN,25,36.369885847,-100.798789002,0,25
1435,Texas,JEFFERSON,OPEN,224,29.935502026000098,-93.989534534,0,224
1436,Illinois,SANGAMON,OPEN,88,39.725561961,-89.640773952,0,88
1437,Texas,WILLIAMSON,OPEN,149,30.566762318000002,-97.65138734700001,0,149
1438,Texas,TOM GREEN,OPEN,295,31.465247843,-100.434893161,0,295
1439,Texas,TOM GREEN,OPEN,131,31.418276543,-100.46981404600001,0,131
1440,Texas,BEXAR,OPEN,1034,29.50700957,-98.578337042,0,1034
1441,Texas,BEXAR,OPEN,933,29.5082133000001,-98.572477589,0,933
1442,Texas,SAN AUGUSTINE,OPEN,18,31.532615865,-94.10300692700001,0,18
1443,Texas,HAYS,OPEN,178,29.8524819890001,-97.94590393999991,0,178
1444,Texas,GUADALUPE,OPEN,125,29.567845123,-97.947237032,0,125
1445,Texas,BAYLOR,OPEN,49,33.5901706550001,-99.248697455,0,49
1446,Texas,BASTROP,OPEN,8,30.003900758,-97.136040432,0,8
1447,Maryland,MONTGOMERY,OPEN,87,39.098593717,-77.200677212,0,87
1448,Maryland,MONTGOMERY,OPEN,93,39.1817612350001,-77.24260989899992,0,93
1449,Maryland,MONTGOMERY,OPEN,204,38.9856263140001,-77.0018225709999,0,204
1450,Texas,ERATH,OPEN,98,32.2229638790001,-98.2043999209999,0,98
1451,Texas,DALLAS,OPEN,70,32.779117268,-96.5688118149999,0,70
1452,Texas,BELL,OPEN,574,31.077447447000104,-97.363447989,0,574
1453,Texas,FORT BEND,OPEN,100,29.604454365,-95.62032464399991,0,100
1454,New Hampshire,GRAFTON,OPEN,396,43.676191551,-72.273334642,0,396
1455,Texas,BOWIE,OPEN,312,33.4641788930001,-94.07549339799999,0,312
1456,Texas,SMITH,OPEN,474,32.342769446,-95.29164025899999,0,474
1457,Texas,SMITH,OPEN,427,32.338479523000004,-95.2907682049999,0,427
1458,Texas,VICTORIA,OPEN,344,28.812877263000104,-96.97773874299999,0,344
1459,Texas,VICTORIA,OPEN,189,28.808069859000103,-96.998344054,0,189
1460,Texas,PARKER,OPEN,99,32.748118223000105,-97.78581051799989,0,99
1461,Texas,HIDALGO,OPEN,226,26.153228401999996,-97.9776193709999,0,226
1462,Texas,WICHITA,OPEN,41,33.872821168,-98.58030420599991,0,41
1463,Texas,DALLAS,OPEN,797,32.911932881999995,-96.77407386999991,0,797
1464,Texas,DALLAS,OPEN,317,32.645761863000104,-96.876848616,0,317
1465,Texas,DALLAS,OPEN,218,32.834782913000005,-96.704932017,0,218
1466,Texas,DALLAS,OPEN,585,32.760373812000104,-96.826023549,0,585
1467,Texas,JIM WELLS,OPEN,159,27.764016471999998,-98.04172626299999,0,159
1468,Texas,NUECES,OPEN,74,27.679774151999997,-97.37023765299989,0,74
1469,Texas,HARRIS,OPEN,4,30.024581062,-95.44853039200001,0,4
1470,Texas,BEXAR,OPEN,429,29.620379095,-98.4914282889999,0,429
1471,Texas,BEXAR,OPEN,371,29.519597002000104,-98.4290579779999,0,371
1472,Texas,JEFFERSON,OPEN,227,29.909424677000104,-93.924439833,0,227
1473,New York,SULLIVAN,OPEN,154,41.7090607860001,-74.73752439899991,0,154
1474,Ohio,FAYETTE,OPEN,25,39.5478569360001,-83.427094959,0,25
1475,Ohio,SUMMIT,OPEN,94,41.096930371999996,-81.513451264,0,94
1476,Ohio,FRANKLIN,OPEN,468,39.95251412,-82.979524043,0,468
1477,Ohio,FRANKLIN,OPEN,90,39.940678641,-83.020291763,0,90
1478,Texas,COLEMAN,OPEN,25,31.828543428000003,-99.42562307700001,0,25
1479,Ohio,MONTGOMERY,OPEN,110,39.736012126,-84.154228142,0,110
1480,Texas,EL PASO,OPEN,347,31.7564919540001,-106.34995188200001,0,347
1481,Ohio,HAMILTON,OPEN,30,39.1372678810001,-84.501273967,0,30
1482,Ohio,LUCAS,OPEN,48,41.589757297000105,-83.689245667,0,48
1483,Ohio,CUYAHOGA,OPEN,0,41.507561206,-81.605813744,0,237
1484,Texas,DALLAS,CLOSED,100,32.8837733180001,-96.757964268,0,100
1485,Texas,DALLAS,CLOSED,111,32.7151183140001,-96.859769496,0,111
1486,Texas,DEWITT,OPEN,49,29.112615029,-97.283341169,0,49
1487,Texas,HARRIS,OPEN,182,29.747620215,-94.94547681599991,0,182
